Late_delivery_risk,Days for shipment (scheduled),order date (DateOrders),Shipping Mode,Market,Order Region,Latitude,Longitude,Category Name,Department Name,Order Item Quantity,Product Status,Customer Segment,Order Item Total,Order Profit Per Order,Order Item Discount Rate,Order City,Order State
0,4,4/29/2017 10:53,Standard Class,LATAM,Central America,35.06275177,-79.00574493,Cardio Equipment,Footwear,3,0,Consumer,251.9700012,-25.20000076,0.159999996,Acuña,Coahuila
1,4,4/4/2015 0:44,Standard Class,LATAM,Central America,21.318676,-157.811615,Cardio Equipment,Footwear,3,0,Consumer,248.9799957,117.0199966,0.170000002,Mixco,Guatemala
0,4,6/3/2017 22:35,Standard Class,LATAM,Central America,42.41796112,-83.25804138,Cardio Equipment,Footwear,3,0,Consumer,248.9799957,87.13999939,0.170000002,Managua,Managua
0,4,3/6/2017 12:01,Standard Class,LATAM,Central America,42.43497467,-83.02230835,Cardio Equipment,Footwear,3,0,Consumer,248.9799957,71.69999695,0.170000002,León,Guanajuato
0,4,5/18/2017 18:45,Standard Class,LATAM,Caribbean,36.80849838,-76.20897675,Boxing & MMA,Footwear,3,0,Consumer,221.3800049,104.0500031,0.180000007,Baní,Peravia
0,4,4/1/2017 18:59,Standard Class,LATAM,Caribbean,41.90410233,-87.93784332,Cardio Equipment,Footwear,3,0,Consumer,245.9799957,-21.64999962,0.180000007,Santo Domingo,Santo Domingo
1,4,4/16/2015 3:52,Standard Class,LATAM,Central America,34.1051712,-118.0531235,Cardio Equipment,Footwear,3,0,Consumer,239.9799957,110.3899994,0.200000003,Huehuetenango,Huehuetenango
0,4,2/13/2017 15:01,Standard Class,LATAM,South America,30.18182945,-81.74115753,Cardio Equipment,Footwear,3,0,Consumer,239.9799957,-6.0,0.200000003,Quito,Pichincha
0,4,4/1/2017 10:14,Standard Class,LATAM,Caribbean,33.12691498,-117.075058,Cardio Equipment,Footwear,3,0,Consumer,224.9799957,105.7399979,0.25,Las Tunas,Las Tunas
0,4,4/28/2017 1:36,Standard Class,LATAM,Central America,33.77347183,-117.977211,Cardio Equipment,Footwear,3,0,Consumer,224.9799957,33.75,0.25,Villahermosa,Tabasco
1,4,4/11/2017 12:40,Standard Class,LATAM,Central America,40.09100723,-82.37677765,Cardio Equipment,Footwear,3,0,Consumer,224.9799957,19.79999924,0.25,Tijuana,Baja California
0,4,3/13/2017 3:46,Standard Class,LATAM,Central America,31.83481979,-106.5510864,Cardio Equipment,Footwear,3,0,Consumer,224.9799957,-382.4599915,0.25,Mexico City,Distrito Federal
0,4,4/20/2015 7:01,Standard Class,LATAM,Central America,37.37883377,-121.8303375,Cleats,Apparel,3,0,Consumer,179.9700012,-42.83000183,0.0,Villa Nueva,Guatemala
0,4,5/22/2015 11:11,Standard Class,LATAM,Central America,39.14162064,-77.2270813,Cleats,Apparel,3,0,Consumer,179.9700012,52.18999863,0.0,Tepic,Nayarit
0,4,5/6/2015 22:04,Standard Class,LATAM,Central America,36.14429092,-115.1571655,Cleats,Apparel,3,0,Consumer,179.9700012,86.38999939,0.0,Coyoacán,Distrito Federal
1,4,2/3/2017 2:26,Standard Class,LATAM,South America,37.32138825,-122.0307388,Cleats,Apparel,3,0,Consumer,179.9700012,65.33000183,0.0,São Luís,Marañón
0,4,4/28/2017 17:43,Standard Class,LATAM,South America,43.09559631,-89.35118866,Cleats,Apparel,3,0,Consumer,179.9700012,14.39999962,0.0,São Paulo,São Paulo
0,4,6/5/2017 5:46,Standard Class,LATAM,Caribbean,33.78466797,-118.0703735,Cleats,Apparel,3,0,Consumer,178.1699982,64.68000031,0.01,Contramaestre,Santiago de Cuba
0,4,2/24/2015 17:47,Standard Class,LATAM,Central America,32.25922394,-110.9718781,Cleats,Apparel,3,0,Consumer,178.1699982,17.8199997,0.01,Puebla,Puebla
0,4,3/10/2015 8:18,Standard Class,LATAM,Central America,21.33713913,-158.0259857,Cleats,Apparel,3,0,Consumer,178.1699982,46.3199997,0.01,Zapopan,Jalisco
0,4,4/8/2015 21:03,Standard Class,LATAM,Central America,38.80710983,-90.29780579,Cleats,Apparel,3,0,Consumer,178.1699982,46.3199997,0.01,San Pedro Sula,Cortés
0,4,5/6/2017 2:39,Standard Class,LATAM,Central America,33.41352081,-103.7812958,Cleats,Apparel,3,0,Consumer,178.1699982,-48.27999878,0.01,Mejicanos,San Salvador
1,4,2/9/2017 8:43,Standard Class,LATAM,Central America,39.98654556,-75.1084671,Cleats,Apparel,3,0,Consumer,178.1699982,83.73999786,0.01,Managua,Managua
1,4,4/29/2015 13:50,Standard Class,LATAM,Central America,29.58597183,-95.62651825,Cleats,Apparel,3,0,Consumer,178.1699982,-6.769999981,0.01,Tampico,Tamaulipas
1,4,5/2/2017 0:54,Standard Class,LATAM,Central America,41.09803391,-111.9948654,Cleats,Apparel,3,0,Consumer,178.1699982,7.130000114,0.01,Quetzaltenango,Quezaltenango
0,4,1/27/2015 2:03,Standard Class,LATAM,South America,34.09960938,-118.3507385,Cleats,Apparel,3,0,Consumer,178.1699982,17.8199997,0.01,Guanambi,Bahía
1,4,5/26/2017 6:49,Standard Class,LATAM,South America,40.35742188,-74.64842224,Cleats,Apparel,3,0,Consumer,178.1699982,62.36000061,0.01,Lima,Lima (ciudad)
0,4,3/7/2015 4:38,Standard Class,LATAM,Caribbean,28.62217712,-81.20755768,Cleats,Apparel,3,0,Consumer,176.3699951,77.59999847,0.02,Manzanillo,Granma
0,4,4/12/2015 2:08,Standard Class,LATAM,Central America,35.06275177,-79.00574493,Cleats,Apparel,3,0,Consumer,176.3699951,64.01999664,0.02,San Salvador,San Salvador
0,4,2/6/2015 15:21,Standard Class,LATAM,Central America,40.87030411,-73.87062073,Cleats,Apparel,3,0,Consumer,176.3699951,61.72999954,0.02,Managua,Managua
0,4,2/15/2017 18:32,Standard Class,LATAM,South America,41.21263504,-73.81626892,Cleats,Apparel,3,0,Consumer,176.3699951,-7.760000229,0.02,Valencia,Carabobo
0,4,4/23/2017 16:09,Standard Class,LATAM,Central America,33.47337341,-112.1697769,Cleats,Apparel,3,0,Consumer,174.5700073,83.79000092,0.029999999,Nicolás Romero,México
0,4,2/9/2015 22:11,Standard Class,LATAM,Central America,33.86329651,-117.9716263,Cleats,Apparel,3,0,Consumer,174.5700073,-296.769989,0.029999999,Piedras Negras,Coahuila
0,4,1/12/2015 23:16,Standard Class,LATAM,Central America,25.90393829,-80.25217438,Cleats,Apparel,3,0,Consumer,174.5700073,5.239999771,0.029999999,Puebla,Puebla
1,4,5/15/2015 12:04,Standard Class,LATAM,Central America,39.79661942,-75.47006989,Cleats,Apparel,3,0,Consumer,174.5700073,59.0,0.029999999,Tegucigalpa,Francisco Morazán
1,4,5/9/2017 4:55,Standard Class,LATAM,Central America,29.71482086,-95.51293945,Cleats,Apparel,3,0,Consumer,174.5700073,-296.769989,0.029999999,La Chorrera,Panamá
0,4,1/26/2017 21:21,Standard Class,LATAM,South America,41.55907822,-72.65383911,Cleats,Apparel,3,0,Consumer,174.5700073,-78.55999756,0.029999999,Belo Horizonte,Minas Gerais
0,4,3/6/2015 21:37,Standard Class,LATAM,South America,45.08919144,-93.21083832,Cleats,Apparel,3,0,Consumer,174.5700073,-261.8599854,0.029999999,San Juan,San Juan
0,4,5/25/2015 23:16,Standard Class,LATAM,Central America,39.66024399,-75.62874603,Cleats,Apparel,3,0,Consumer,172.7700043,58.40000153,0.039999999,Tegucigalpa,Francisco Morazán
0,4,5/21/2015 14:31,Standard Class,LATAM,Central America,42.40109634,-82.92513275,Cleats,Apparel,3,0,Consumer,172.7700043,-12.96000004,0.039999999,Victoria,Tamaulipas
1,4,4/4/2015 1:05,Standard Class,LATAM,Central America,40.11835098,-82.92810822,Cleats,Apparel,3,0,Consumer,172.7700043,44.91999817,0.039999999,Panama City,Panamá
1,4,4/19/2017 23:52,Standard Class,LATAM,South America,33.21837997,-117.2267685,Cleats,Apparel,3,0,Consumer,172.7700043,58.40000153,0.039999999,Porto Alegre,Rio Grande do Sul
1,4,2/20/2015 13:35,Standard Class,LATAM,South America,42.74489975,-83.61791229,Cleats,Apparel,3,0,Consumer,172.7700043,43.18999863,0.039999999,Guayana,Bolívar
0,4,5/29/2015 23:15,Standard Class,LATAM,South America,30.56995392,-92.07212067,Cleats,Apparel,3,0,Consumer,172.7700043,56.15000153,0.039999999,Vassouras,Río de Janeiro
0,4,5/9/2015 18:44,Standard Class,LATAM,Caribbean,39.49591446,-98.98998261,Cleats,Apparel,3,0,Consumer,170.9700012,-39.84000015,0.050000001,Santa Cruz de Barahona,Barahona
0,4,3/11/2017 18:51,Standard Class,LATAM,Central America,41.42009354,-87.36070252,Cleats,Apparel,3,0,Consumer,170.9700012,54.70999908,0.050000001,Tegucigalpa,Francisco Morazán
0,4,5/25/2017 14:21,Standard Class,LATAM,Central America,40.32811356,-79.70446014,Cleats,Apparel,3,0,Consumer,170.9700012,62.06000137,0.050000001,Puebla,Puebla
1,4,4/22/2017 20:11,Standard Class,LATAM,Central America,29.42638016,-98.52271271,Cleats,Apparel,3,0,Consumer,170.9700012,59.84000015,0.050000001,Mixco,Guatemala
0,4,5/9/2017 0:43,Standard Class,LATAM,South America,33.52104187,-82.04935455,Cleats,Apparel,3,0,Consumer,170.9700012,62.06000137,0.050000001,Caracas,Distrito Capital
0,4,3/1/2017 15:21,Standard Class,LATAM,South America,41.69840622,-87.73734283,Cleats,Apparel,3,0,Consumer,170.9700012,47.86999893,0.050000001,Cagua,Aragua
1,4,3/31/2015 0:45,Standard Class,LATAM,Caribbean,41.02825546,-83.63446808,Cleats,Apparel,3,0,Consumer,170.0700073,78.23000336,0.059999999,Santo Domingo,Santo Domingo
0,4,4/22/2015 10:52,Standard Class,LATAM,Central America,33.63466644,-117.9137268,Cleats,Apparel,3,0,Consumer,170.0700073,-27.71999931,0.059999999,Hermosillo,Sonora
0,4,4/19/2015 14:33,Standard Class,LATAM,Central America,40.76031113,-111.8882217,Cleats,Apparel,3,0,Consumer,170.0700073,71.43000031,0.059999999,Managua,Managua
0,4,3/1/2017 15:21,Standard Class,LATAM,South America,41.69840622,-87.73734283,Cleats,Apparel,3,0,Consumer,170.0700073,44.22000122,0.059999999,Cagua,Aragua
1,4,3/17/2017 1:19,Standard Class,LATAM,Central America,39.11714172,-76.50543976,Cleats,Apparel,3,0,Consumer,167.3699951,76.98999786,0.07,David,Chiriquí
0,4,4/19/2015 14:33,Standard Class,LATAM,Central America,40.76031113,-111.8882217,Cleats,Apparel,3,0,Consumer,167.3699951,50.20999908,0.07,Managua,Managua
0,4,3/1/2017 15:21,Standard Class,LATAM,South America,41.69840622,-87.73734283,Cleats,Apparel,3,0,Consumer,167.3699951,41.84000015,0.07,Cagua,Aragua
0,4,2/22/2017 21:51,Standard Class,LATAM,South America,40.41255188,-74.41832733,Cleats,Apparel,3,0,Consumer,167.3699951,35.65000153,0.07,Buenos Aires,Buenos Aires
0,4,3/16/2017 20:46,Standard Class,LATAM,Caribbean,33.82987595,-84.14959717,Cleats,Apparel,3,0,Consumer,163.7700043,44.22000122,0.090000004,Holguín,Holguín
0,4,5/28/2017 10:41,Standard Class,LATAM,South America,41.55907822,-72.65383911,Cleats,Apparel,3,0,Consumer,163.7700043,57.3199997,0.090000004,Gaspar,Santa Catarina
0,4,6/7/2017 1:12,Standard Class,LATAM,Caribbean,46.81184387,-100.7877197,Cleats,Apparel,3,0,Consumer,161.9700012,-37.74000168,0.100000001,Santiago de los Caballeros,Santiago de Chile
0,4,3/7/2017 0:17,Standard Class,LATAM,Central America,32.80532837,-96.62866211,Cleats,Apparel,3,0,Consumer,161.9700012,-4.699999809,0.100000001,Tegucigalpa,Francisco Morazán
1,4,2/26/2017 1:52,Standard Class,LATAM,South America,33.62104797,-117.6759186,Cleats,Apparel,3,0,Consumer,161.9700012,52.63999939,0.100000001,Bogotá,Bogotá
0,4,3/16/2017 19:22,Standard Class,LATAM,South America,39.63720322,-104.8287659,Cleats,Apparel,3,0,Consumer,161.9700012,30.45000076,0.100000001,Resistencia,Chaco
0,4,3/31/2017 12:52,Standard Class,LATAM,South America,25.97953987,-80.19422913,Cleats,Apparel,3,0,Consumer,161.9700012,-18.29999924,0.100000001,Montes Claros,Minas Gerais
1,4,3/25/2015 8:07,Standard Class,LATAM,South America,26.15281105,-97.95410919,Cleats,Apparel,3,0,Consumer,161.9700012,-12.14999962,0.100000001,Anápolis,Goiás
1,4,2/1/2015 10:38,Standard Class,LATAM,Central America,43.58177948,-116.3938828,Cleats,Apparel,3,0,Consumer,158.3699951,-17.89999962,0.119999997,Granada,Granada
0,4,3/13/2017 20:56,Standard Class,LATAM,Central America,40.67343903,-73.87017822,Cleats,Apparel,3,0,Consumer,158.3699951,44.34000015,0.119999997,Guadalajara,Jalisco
0,4,3/28/2015 3:22,Standard Class,LATAM,Central America,40.87593079,-73.91262817,Cleats,Apparel,3,0,Consumer,158.3699951,42.75999832,0.119999997,Managua,Managua
1,4,2/4/2015 13:57,Standard Class,LATAM,Central America,38.90260315,-76.98190308,Cleats,Apparel,3,0,Consumer,156.5700073,70.45999908,0.129999995,Irapuato,Guanajuato
0,4,2/7/2017 17:29,Standard Class,LATAM,Caribbean,40.52410889,-74.39279938,Cleats,Apparel,3,0,Consumer,152.9700012,38.24000168,0.150000006,Santiago de los Caballeros,Santiago de Chile
0,4,3/30/2015 19:50,Standard Class,LATAM,Central America,38.42893982,-121.3671112,Cleats,Apparel,3,0,Consumer,152.9700012,15.30000019,0.150000006,Santa Catarina,Nuevo León
0,4,4/23/2015 21:54,Standard Class,LATAM,Central America,36.18152618,-115.0874405,Cleats,Apparel,3,0,Consumer,152.9700012,-2.140000105,0.150000006,Culiacán,Sinaloa
0,4,6/10/2017 19:14,Standard Class,LATAM,Central America,42.00220108,-71.51410675,Cleats,Apparel,3,0,Consumer,152.9700012,21.42000008,0.150000006,Acuña,Coahuila
0,4,4/27/2015 19:06,Standard Class,LATAM,South America,36.93401337,-121.7433395,Cleats,Apparel,3,0,Consumer,152.9700012,19.88999939,0.150000006,Rancagua,O'Higgins
0,4,4/30/2017 4:46,Standard Class,LATAM,South America,32.81010819,-96.68649292,Cleats,Apparel,3,0,Consumer,152.9700012,-224.4100037,0.150000006,Brasília,Distrito Federal
0,4,5/30/2017 9:37,Standard Class,LATAM,Caribbean,33.80156326,-117.8990173,Cleats,Apparel,3,0,Consumer,151.1699982,39.31000137,0.159999996,Santiago de Cuba,Santiago de Cuba
0,4,4/18/2015 9:08,Standard Class,LATAM,Caribbean,38.69150925,-121.3033371,Cleats,Apparel,3,0,Consumer,151.1699982,74.08000183,0.159999996,Santo Domingo,Santo Domingo
0,4,5/7/2015 16:59,Standard Class,LATAM,Central America,33.9172287,-84.47109222,Cleats,Apparel,3,0,Consumer,151.1699982,-88.12999725,0.159999996,San Ignacio,Distrito de Cayo
0,4,6/6/2017 4:32,Standard Class,LATAM,South America,33.90942383,-118.1253586,Cleats,Apparel,3,0,Consumer,151.1699982,40.8199997,0.159999996,Cabo de Santo Agostinho,Pernambuco
0,4,4/21/2017 7:03,Standard Class,LATAM,South America,38.55596924,-90.27106476,Cleats,Apparel,3,0,Consumer,151.1699982,74.08000183,0.159999996,Concepción del Uruguay,Entre Ríos
0,4,4/3/2017 15:08,Standard Class,LATAM,South America,40.03164673,-75.12759399,Cleats,Apparel,3,0,Consumer,151.1699982,-25.25,0.159999996,Lima,Lima (ciudad)
0,4,3/30/2017 5:41,Standard Class,LATAM,South America,40.60349274,-75.472435,Cleats,Apparel,3,0,Consumer,151.1699982,-400.6099854,0.159999996,Florencia,Caquetá
1,4,1/1/2015 4:54,Standard Class,LATAM,South America,35.17372131,-89.94194031,Cleats,Apparel,3,0,Consumer,151.1699982,-72.55999756,0.159999996,Brasília,Distrito Federal
1,4,1/25/2017 0:52,Standard Class,LATAM,Central America,42.26944733,-83.7731247,Cleats,Apparel,3,0,Consumer,149.3800049,48.54999924,0.170000002,San Salvador,San Salvador
1,4,4/20/2015 14:23,Standard Class,LATAM,South America,36.81669235,-121.6491547,Cleats,Apparel,3,0,Consumer,149.3800049,-29.87999916,0.170000002,Porto Alegre,Rio Grande do Sul
0,4,2/10/2015 14:39,Standard Class,LATAM,South America,33.77404404,-117.9734497,Cleats,Apparel,3,0,Consumer,149.3800049,62.74000168,0.170000002,Betim,Minas Gerais
1,4,3/11/2015 4:16,Standard Class,LATAM,Central America,27.9327755,-82.22817993,Cleats,Apparel,3,0,Consumer,147.5800018,61.97999954,0.180000007,Mérida,Yucatán
0,4,5/7/2017 4:13,Standard Class,LATAM,Central America,35.18754196,-101.8676224,Cleats,Apparel,3,0,Consumer,147.5800018,11.0699997,0.180000007,Mexico City,Distrito Federal
0,4,5/11/2015 8:34,Standard Class,LATAM,South America,33.29928207,-111.8414688,Cleats,Apparel,3,0,Consumer,147.5800018,41.3199997,0.180000007,Belo Horizonte,Minas Gerais
0,4,1/24/2015 12:24,Standard Class,LATAM,South America,41.3469696,-81.82631683,Cleats,Apparel,3,0,Consumer,147.5800018,-77.48000336,0.180000007,Vitória,Espíritu Santo
0,4,3/7/2015 14:47,Standard Class,LATAM,Caribbean,42.42012024,-79.31320953,Cleats,Apparel,3,0,Consumer,143.9799957,66.23000336,0.200000003,Fort-de-France,Martinica
1,4,5/7/2017 0:01,Standard Class,LATAM,Caribbean,33.0276413,-96.82976532,Cleats,Apparel,3,0,Consumer,143.9799957,-110.4300003,0.200000003,Carrefour,Ouest
1,4,4/10/2017 8:38,Standard Class,LATAM,Central America,42.06258011,-71.01766205,Cleats,Apparel,3,0,Consumer,143.9799957,41.75,0.200000003,Acayucan,Veracruz
1,4,3/6/2017 6:04,Standard Class,LATAM,Central America,41.8719368,-71.38621521,Cleats,Apparel,3,0,Consumer,143.9799957,-33.54999924,0.200000003,Soyapango,San Salvador
0,4,4/2/2017 20:55,Standard Class,LATAM,Central America,29.51912117,-98.68292236,Cleats,Apparel,3,0,Consumer,143.9799957,67.66999817,0.200000003,Panama City,Panamá
1,4,1/6/2015 2:16,Standard Class,LATAM,South America,33.98547363,-118.3382416,Cleats,Apparel,3,0,Consumer,143.9799957,52.25999832,0.200000003,Guarapuava,Paraná
0,4,3/2/2017 14:08,Standard Class,LATAM,South America,41.44255066,-81.70441437,Cleats,Apparel,3,0,Consumer,143.9799957,61.90999985,0.200000003,Santarém,Pará
1,4,2/3/2015 4:41,Standard Class,LATAM,Caribbean,34.15697479,-117.4821548,Cleats,Apparel,3,0,Consumer,134.9799957,37.11999893,0.25,San Francisco de Macorís,Duarte
1,4,3/14/2015 23:01,Standard Class,LATAM,Central America,33.84394455,-117.9417572,Cleats,Apparel,3,0,Consumer,134.9799957,60.74000168,0.25,Ilopango,San Salvador
0,4,2/7/2015 18:20,Standard Class,LATAM,Central America,39.4593544,-84.4200058,Cleats,Apparel,3,0,Consumer,134.9799957,13.5,0.25,Matagalpa,Matagalpa
0,4,5/28/2015 5:55,Standard Class,LATAM,South America,35.4038887,-118.9455185,Cleats,Apparel,3,0,Consumer,134.9799957,66.13999939,0.25,Pontes e Lacerda,Mato Grosso
0,4,1/17/2015 10:50,Standard Class,LATAM,South America,29.86195946,-95.64417267,Cleats,Apparel,3,0,Consumer,134.9799957,36.43999863,0.25,Soacha,Cundinamarca
0,4,5/4/2017 10:00,Standard Class,LATAM,Central America,42.26944733,-83.7731247,Women's Apparel,Golf,3,0,Consumer,150.0,13.19999981,0.0,Tlaquepaque,Jalisco
0,4,1/17/2015 22:45,Standard Class,LATAM,Central America,40.66480255,-74.11959076,Women's Apparel,Golf,3,0,Consumer,150.0,63.0,0.0,Tegucigalpa,Francisco Morazán
0,4,1/20/2017 10:09,Standard Class,LATAM,South America,36.0839386,-115.1725845,Women's Apparel,Golf,3,0,Consumer,150.0,16.95000076,0.0,Soledad,Atlántico
0,4,5/9/2017 18:14,Standard Class,LATAM,Central America,33.32217026,-117.15728,Shop By Sport,Golf,3,0,Consumer,118.7699966,24.94000053,0.01,Choloma,Cortés
0,4,3/9/2015 2:11,Standard Class,LATAM,Central America,35.4038887,-118.9455185,Shop By Sport,Golf,3,0,Consumer,118.7699966,35.63000107,0.01,Monterrey,Nuevo León
0,4,3/26/2015 13:11,Standard Class,LATAM,Central America,27.92110634,-82.23256683,Shop By Sport,Golf,3,0,Consumer,118.7699966,53.45000076,0.01,Estelí,Estelí
1,4,2/25/2017 13:36,Standard Class,LATAM,South America,34.5802269,-118.0599518,Shop By Sport,Golf,3,0,Consumer,89.09999847,-16.75,0.01,El Tigre,Anzoátegui
0,4,3/18/2015 20:33,Standard Class,LATAM,South America,41.89491653,-87.76180267,Women's Apparel,Golf,3,0,Consumer,148.5,16.78000069,0.01,Itapeva,São Paulo
0,4,5/27/2015 1:11,Standard Class,LATAM,South America,47.67869949,-122.3217621,Women's Apparel,Golf,3,0,Consumer,148.5,-29.70000076,0.01,Quixadá,Ceará
1,4,3/20/2017 15:09,Standard Class,LATAM,Caribbean,32.82715988,-97.00611877,Shop By Sport,Golf,3,0,Consumer,117.5699997,8.819999695,0.02,San Pedro de Macorís,San Pedro de Macorís
1,4,3/9/2015 1:28,Standard Class,LATAM,Central America,33.42036057,-111.8974457,Shop By Sport,Golf,3,0,Consumer,117.5699997,-305.6799927,0.02,Rosarito,Baja California
1,4,1/29/2017 16:58,Standard Class,LATAM,Central America,36.98222733,-121.4390183,Shop By Sport,Golf,3,0,Consumer,117.5699997,-3.410000086,0.02,San Luis Río Colorado,Sonora
0,4,5/6/2015 3:09,Standard Class,LATAM,Central America,39.95473099,-75.20536804,Shop By Sport,Golf,3,0,Consumer,117.5699997,36.79999924,0.02,Villahermosa,Tabasco
0,4,1/27/2015 10:49,Standard Class,LATAM,Central America,37.99792099,-122.1571274,Women's Apparel,Golf,3,0,Consumer,147.0,49.97999954,0.02,Puebla,Puebla
1,4,3/17/2017 1:40,Standard Class,LATAM,Central America,35.30034638,-119.2525253,Women's Apparel,Golf,3,0,Consumer,147.0,67.62000275,0.02,David,Chiriquí
1,4,3/14/2015 23:01,Standard Class,LATAM,Central America,33.84394455,-117.9417572,Women's Apparel,Golf,3,0,Consumer,147.0,-24.54999924,0.02,Ilopango,San Salvador
1,4,1/22/2015 1:53,Standard Class,LATAM,South America,38.40867996,-121.4790573,Women's Apparel,Golf,3,0,Consumer,147.0,-91.13999939,0.02,Callao,Callao
1,4,5/15/2015 13:49,Standard Class,LATAM,South America,34.69804382,-118.1030502,Women's Apparel,Golf,3,0,Consumer,147.0,24.98999977,0.02,Santiago de Chile,Santiago de Chile
1,4,6/5/2017 4:42,Standard Class,LATAM,South America,26.19086266,-97.69604492,Women's Apparel,Golf,3,0,Consumer,147.0,30.87000084,0.02,Ipiales,Nariño
0,4,3/11/2017 20:15,Standard Class,LATAM,South America,29.7872448,-95.37207031,Women's Apparel,Golf,3,0,Consumer,147.0,-29.39999962,0.02,Córdoba,Córdoba
0,4,4/18/2015 5:37,Standard Class,LATAM,Caribbean,32.79521942,-117.2376556,Women's Apparel,Golf,3,0,Consumer,145.5,5.53000021,0.029999999,Santiago de los Caballeros,Santiago de Chile
1,4,2/25/2017 10:06,Standard Class,LATAM,South America,37.33271027,-121.8783722,Women's Apparel,Golf,3,0,Consumer,145.5,-120.0400009,0.029999999,Buenos Aires,Buenos Aires
0,4,5/5/2015 21:53,Standard Class,LATAM,South America,39.93404007,-77.66103363,Women's Apparel,Golf,3,0,Consumer,145.5,-12.80000019,0.029999999,Ibiúna,São Paulo
0,4,4/14/2017 22:18,Standard Class,LATAM,Caribbean,33.13901901,-117.0928192,Shop By Sport,Golf,3,0,Consumer,115.1699982,31.10000038,0.039999999,Santo Domingo,Santo Domingo
0,4,3/2/2015 21:38,Standard Class,LATAM,Caribbean,39.13246918,-84.59480286,Shop By Sport,Golf,3,0,Consumer,115.1699982,19.57999992,0.039999999,San Pedro de Macorís,San Pedro de Macorís
1,4,4/25/2017 18:15,Standard Class,LATAM,Caribbean,33.40356064,-112.0214005,Women's Apparel,Golf,3,0,Consumer,144.0,45.0699997,0.039999999,Santiago de Cuba,Santiago de Cuba
0,4,3/28/2017 19:00,Standard Class,LATAM,Central America,39.92321014,-75.16308594,Shop By Sport,Golf,3,0,Consumer,115.1699982,29.94000053,0.039999999,Metepec,México
0,4,2/28/2017 7:28,Standard Class,LATAM,Central America,40.69240189,-73.9262085,Women's Apparel,Golf,3,0,Consumer,144.0,16.27000046,0.039999999,Orizaba,Veracruz
1,4,5/30/2015 0:19,Standard Class,LATAM,South America,33.12691498,-117.075058,Shop By Sport,Golf,3,0,Consumer,115.1699982,40.31000137,0.039999999,Araranguá,Santa Catarina
0,4,4/20/2017 14:56,Standard Class,LATAM,Central America,44.74582672,-93.2881546,Women's Apparel,Golf,3,0,Consumer,142.5,41.33000183,0.050000001,San Salvador,San Salvador
0,4,4/15/2015 19:49,Standard Class,LATAM,Central America,29.7805748,-95.17199707,Women's Apparel,Golf,3,0,Consumer,142.5,16.67000008,0.050000001,Chinautla,Guatemala
0,4,5/15/2017 0:21,Standard Class,LATAM,South America,34.04983521,-118.2127457,Shop By Sport,Golf,3,0,Consumer,113.9700012,19.37999916,0.050000001,Cruz das Almas,Bahía
0,4,5/5/2015 21:53,Standard Class,LATAM,South America,39.93404007,-77.66103363,Shop By Sport,Golf,3,0,Consumer,113.9700012,8.550000191,0.050000001,Ibiúna,São Paulo
1,4,4/9/2017 2:52,Standard Class,LATAM,South America,34.26494217,-119.218605,Women's Apparel,Golf,3,0,Consumer,142.5,64.12999725,0.050000001,Avellaneda,Santa Fe
0,4,2/10/2015 14:39,Standard Class,LATAM,South America,33.77404404,-117.9734497,Women's Apparel,Golf,3,0,Consumer,142.5,-99.75,0.050000001,Betim,Minas Gerais
0,4,3/31/2017 12:52,Standard Class,LATAM,South America,25.97953987,-80.19422913,Women's Apparel,Golf,3,0,Consumer,142.5,64.12999725,0.050000001,Montes Claros,Minas Gerais
0,4,3/3/2017 21:39,Standard Class,LATAM,South America,42.83187103,-86.07852173,Women's Apparel,Golf,3,0,Consumer,142.5,16.10000038,0.050000001,Teresópolis,Río de Janeiro
0,4,1/31/2017 22:14,Standard Class,LATAM,South America,41.23968124,-111.9685974,Women's Apparel,Golf,3,0,Consumer,142.5,38.47999954,0.050000001,Santiago de Chile,Santiago de Chile
1,4,4/7/2017 19:20,Standard Class,LATAM,Central America,36.94937897,-76.24703217,Shop By Sport,Golf,3,0,Consumer,113.3700027,-79.36000061,0.059999999,San Miguelito,Panamá
0,4,5/14/2015 15:45,Standard Class,LATAM,Central America,37.67551041,-122.0496826,Women's Apparel,Golf,3,0,Consumer,141.75,-113.4000015,0.059999999,Hermosillo,Sonora
1,4,1/25/2015 22:23,Standard Class,LATAM,Central America,40.63466263,-73.99480438,Women's Apparel,Golf,3,0,Consumer,141.75,19.55999947,0.059999999,Guadalajara,Jalisco
0,4,2/18/2015 8:20,Standard Class,LATAM,Central America,39.96744919,-75.58142853,Women's Apparel,Golf,3,0,Consumer,141.75,53.15999985,0.059999999,San Salvador,San Salvador
0,4,4/20/2017 14:35,Standard Class,LATAM,Central America,47.67179108,-122.1336288,Women's Apparel,Golf,3,0,Consumer,141.75,42.52999878,0.059999999,Choloma,Cortés
0,4,2/4/2017 17:19,Standard Class,LATAM,South America,35.43272018,-119.0332794,Women's Apparel,Golf,3,0,Consumer,141.75,65.20999908,0.059999999,Curitiba,Paraná
0,4,4/30/2015 7:00,Standard Class,LATAM,Central America,40.58441544,-74.15991974,Women's Apparel,Golf,3,0,Consumer,139.5,13.94999981,0.07,Puebla,Puebla
0,4,3/6/2017 19:44,Standard Class,LATAM,Central America,29.88981438,-95.47782135,Women's Apparel,Golf,3,0,Consumer,139.5,40.45999908,0.07,Masaya,Masaya
0,4,5/26/2017 7:53,Standard Class,LATAM,Central America,38.82551575,-77.21334839,Women's Apparel,Golf,3,0,Consumer,139.5,-12.27999973,0.07,Choloma,Cortés
1,4,1/28/2017 9:48,Standard Class,LATAM,South America,32.25922394,-110.9718781,Shop By Sport,Golf,3,0,Consumer,111.5699997,1.120000005,0.07,Salvador,Bahía
1,4,6/14/2017 5:55,Standard Class,LATAM,South America,37.49027634,-121.9271088,Women's Apparel,Golf,3,0,Consumer,139.5,68.36000061,0.07,Surubim,Pernambuco
0,4,2/4/2017 17:19,Standard Class,LATAM,South America,35.43272018,-119.0332794,Women's Apparel,Golf,3,0,Consumer,139.5,-92.0699997,0.07,Curitiba,Paraná
1,4,2/7/2015 17:17,Standard Class,LATAM,South America,41.6280365,-70.92701721,Women's Apparel,Golf,3,0,Consumer,139.5,-33.90000153,0.07,Buenos Aires,Buenos Aires
0,4,1/4/2015 0:10,Standard Class,LATAM,South America,40.28556824,-75.0894165,Women's Apparel,Golf,3,0,Consumer,139.5,34.88000107,0.07,Puerto La Cruz,Anzoátegui
0,4,6/4/2017 14:00,Standard Class,LATAM,Central America,33.9172287,-84.47109222,Shop By Sport,Golf,3,0,Consumer,109.1699982,39.63000107,0.090000004,Culiacán,Sinaloa
1,4,3/28/2015 20:11,Standard Class,LATAM,Central America,32.95038223,-96.65195465,Shop By Sport,Golf,3,0,Consumer,109.1699982,50.22000122,0.090000004,León,Guanajuato
1,4,4/14/2015 20:00,Standard Class,LATAM,Central America,36.82690048,-119.6776962,Women's Apparel,Golf,3,0,Consumer,136.5,-25.38999939,0.090000004,Tlalpan,Distrito Federal
1,4,3/9/2015 17:14,Standard Class,LATAM,Central America,36.78740311,-119.7815323,Women's Apparel,Golf,3,0,Consumer,136.5,-225.2299957,0.090000004,San Miguelito,Panamá
1,4,2/1/2015 10:38,Standard Class,LATAM,Central America,43.58177948,-116.3938828,Women's Apparel,Golf,3,0,Consumer,136.5,15.02000046,0.090000004,Granada,Granada
1,4,3/15/2017 14:38,Standard Class,LATAM,Caribbean,33.65735245,-84.36990356,Shop By Sport,Golf,3,0,Consumer,107.9700012,-1.50999999,0.100000001,La Romana,La Romana
1,4,1/6/2015 21:32,Standard Class,LATAM,Caribbean,41.48426819,-81.5922699,Shop By Sport,Golf,3,0,Consumer,107.9700012,31.30999947,0.100000001,San Pedro de Macorís,San Pedro de Macorís
0,4,1/3/2015 2:48,Standard Class,LATAM,Caribbean,33.45198822,-112.1262131,Women's Apparel,Golf,3,0,Consumer,135.0,4.050000191,0.100000001,Santo Domingo,Santo Domingo
0,4,3/6/2017 15:31,Standard Class,LATAM,Caribbean,40.66080093,-73.92007446,Women's Apparel,Golf,3,0,Consumer,135.0,66.15000153,0.100000001,Santo Domingo,Santo Domingo
1,4,2/23/2017 19:55,Standard Class,LATAM,Central America,36.19702148,-115.2236481,Shop By Sport,Golf,3,0,Consumer,107.9700012,30.22999954,0.100000001,Cuajimalpa,Distrito Federal
0,4,4/8/2017 3:23,Standard Class,LATAM,Central America,34.00455093,-118.2600937,Women's Apparel,Golf,3,0,Consumer,135.0,-32.13000107,0.100000001,Mixco,Guatemala
1,4,4/20/2015 23:29,Standard Class,LATAM,Central America,42.06258011,-71.01766205,Women's Apparel,Golf,3,0,Consumer,135.0,3.380000114,0.100000001,Chimaltenango,Chimaltenango
1,4,1/29/2015 5:33,Standard Class,LATAM,Central America,42.26944733,-83.7731247,Women's Apparel,Golf,3,0,Consumer,135.0,11.88000011,0.100000001,Guasave,Sinaloa
1,4,4/25/2017 9:30,Standard Class,LATAM,Central America,47.6916008,-122.3064575,Women's Apparel,Golf,3,0,Consumer,135.0,63.45000076,0.100000001,Ilopango,San Salvador
1,4,2/3/2017 7:20,Standard Class,LATAM,Caribbean,41.50205994,-74.01177216,Women's Apparel,Golf,3,0,Consumer,132.0,1.720000029,0.119999997,Santo Domingo,Santo Domingo
0,4,5/10/2015 19:15,Standard Class,LATAM,Central America,33.79627991,-118.1914597,Shop By Sport,Golf,3,0,Consumer,105.5699997,0.0,0.119999997,Soyapango,San Salvador
0,4,1/6/2015 15:35,Standard Class,LATAM,Central America,33.96364975,-118.2096863,Shop By Sport,Golf,3,0,Consumer,105.5699997,47.50999832,0.119999997,Hermosillo,Sonora
0,4,3/4/2015 11:49,Standard Class,LATAM,Central America,30.0085144,-90.1476059,Women's Apparel,Golf,3,0,Consumer,132.0,38.27999878,0.119999997,Tlalnepantla,México
1,4,5/15/2017 21:44,Standard Class,LATAM,Central America,42.51310349,-83.0218277,Women's Apparel,Golf,3,0,Consumer,132.0,8.319999695,0.119999997,Gómez Palacio,Durango
0,4,5/31/2017 22:24,Standard Class,LATAM,Central America,39.98654556,-75.1084671,Women's Apparel,Golf,3,0,Consumer,132.0,46.20000076,0.119999997,Saltillo,Coahuila
1,4,5/2/2017 0:54,Standard Class,LATAM,Central America,41.09803391,-111.9948654,Women's Apparel,Golf,3,0,Consumer,132.0,36.95999908,0.119999997,Quetzaltenango,Quezaltenango
1,4,2/10/2015 3:05,Standard Class,LATAM,South America,45.5698967,-122.6994629,Women's Apparel,Golf,3,0,Consumer,132.0,-18.87999916,0.119999997,Presidencia Roque Sáenz Peña,Chaco
1,4,6/4/2017 4:32,Standard Class,LATAM,Central America,38.85985184,-104.8208618,Women's Apparel,Golf,3,0,Consumer,130.5,37.58000183,0.129999995,Campeche,Campeche
0,4,2/3/2017 3:29,Standard Class,LATAM,Central America,25.97953987,-80.19422913,Women's Apparel,Golf,3,0,Consumer,130.5,9.789999962,0.129999995,Santa Catarina,Nuevo León
0,4,3/4/2015 8:40,Standard Class,LATAM,Central America,40.74718475,-73.87696838,Women's Apparel,Golf,3,0,Consumer,130.5,-202.2799988,0.129999995,Morelia,Michoacán
1,4,2/7/2015 17:17,Standard Class,LATAM,South America,41.6280365,-70.92701721,Shop By Sport,Golf,3,0,Consumer,104.3700027,7.829999924,0.129999995,Buenos Aires,Buenos Aires
1,4,2/6/2015 19:55,Standard Class,LATAM,South America,37.69120026,-97.42577362,Women's Apparel,Golf,3,0,Consumer,130.5,42.40999985,0.129999995,Paita,Piura
0,4,2/6/2015 4:51,Standard Class,LATAM,Caribbean,29.96774292,-90.03494263,Shop By Sport,Golf,3,0,Consumer,101.9700012,-8.970000267,0.150000006,San José de las Lajas,Mayabeque
0,4,3/24/2017 22:09,Standard Class,LATAM,Caribbean,40.70074081,-73.8950882,Shop By Sport,Golf,3,0,Consumer,101.9700012,5.099999905,0.150000006,Manzanillo,Granma
1,4,1/31/2017 0:30,Standard Class,LATAM,Caribbean,30.17649269,-81.78118897,Women's Apparel,Golf,3,0,Consumer,127.5,-21.29000092,0.150000006,Guantánamo,Guantánamo
1,4,3/1/2015 12:42,Standard Class,LATAM,Central America,38.48671341,-121.459343,Shop By Sport,Golf,3,0,Consumer,101.9700012,38.24000168,0.150000006,Saltillo,Coahuila
1,4,4/27/2017 14:03,Standard Class,LATAM,Central America,40.73124313,-73.98880768,Shop By Sport,Golf,3,0,Consumer,101.9700012,-74.75,0.150000006,Mexico City,Distrito Federal
0,4,4/17/2015 7:12,Standard Class,LATAM,Central America,33.41519928,-111.9199905,Women's Apparel,Golf,3,0,Consumer,127.5,1.279999971,0.150000006,Tuxtla Gutiérrez,Chiapas
1,4,4/13/2015 11:04,Standard Class,LATAM,Central America,33.40329361,-111.9140549,Women's Apparel,Golf,3,0,Consumer,127.5,35.06000137,0.150000006,Puebla,Puebla
1,4,4/27/2017 14:03,Standard Class,LATAM,Central America,40.73124313,-73.98880768,Women's Apparel,Golf,3,0,Consumer,127.5,14.02999973,0.150000006,Mexico City,Distrito Federal
0,4,1/21/2017 18:44,Standard Class,LATAM,South America,32.7514801,-117.1934433,Women's Apparel,Golf,3,0,Consumer,127.5,39.90999985,0.150000006,Buenos Aires,Buenos Aires
0,4,3/1/2015 10:15,Standard Class,LATAM,Caribbean,35.20695877,-90.01077271,Shop By Sport,Golf,3,0,Consumer,100.7699966,7.559999943,0.159999996,Santo Domingo,Santo Domingo
0,4,3/13/2017 0:37,Standard Class,LATAM,Central America,30.39526939,-97.92563629,Shop By Sport,Golf,3,0,Consumer,100.7699966,49.38000107,0.159999996,Durango,Durango
1,4,1/20/2015 5:45,Standard Class,LATAM,Central America,40.66534042,-73.94522095,Women's Apparel,Golf,3,0,Consumer,126.0,44.09999847,0.159999996,Guadalajara,Jalisco
0,4,5/18/2017 20:30,Standard Class,LATAM,Central America,34.37875748,-118.9261627,Women's Apparel,Golf,3,0,Consumer,124.5,23.65999985,0.170000002,Chihuahua,Chihuahua
0,4,1/20/2015 5:24,Standard Class,LATAM,Central America,36.78120422,-119.7815475,Women's Apparel,Golf,3,0,Consumer,124.5,22.15999985,0.170000002,Heroica Zitácuaro,Michoacán
1,4,6/13/2017 1:54,Standard Class,LATAM,Central America,42.10625076,-84.4058075,Women's Apparel,Golf,3,0,Consumer,124.5,42.08000183,0.170000002,Soyapango,San Salvador
0,4,1/11/2015 17:30,Standard Class,LATAM,Central America,39.93740463,-74.36590576,Women's Apparel,Golf,3,0,Consumer,124.5,15.56000042,0.170000002,León,Guanajuato
0,4,2/6/2015 7:18,Standard Class,LATAM,Central America,40.83852005,-73.94216919,Women's Apparel,Golf,3,0,Consumer,124.5,61.00999832,0.170000002,Juárez,Chihuahua
1,4,3/28/2015 20:11,Standard Class,LATAM,Central America,32.95038223,-96.65195465,Women's Apparel,Golf,3,0,Consumer,124.5,32.36999893,0.170000002,León,Guanajuato
1,4,3/16/2015 6:54,Standard Class,LATAM,South America,32.7651329,-96.5814209,Women's Apparel,Golf,3,0,Consumer,124.5,9.340000153,0.170000002,João Pessoa,Paraíba
0,4,5/17/2015 3:39,Standard Class,LATAM,Caribbean,37.69022751,-122.4631653,Shop By Sport,Golf,3,0,Consumer,98.37999725,-24.59000015,0.180000007,Las Tunas,Las Tunas
0,4,3/5/2017 17:27,Standard Class,LATAM,Caribbean,42.32117081,-71.05672455,Women's Apparel,Golf,3,0,Consumer,123.0,9.229999542,0.180000007,Les Abymes,Guadalupe
0,4,5/9/2017 8:46,Standard Class,LATAM,Central America,37.3288765,-121.8501511,Women's Apparel,Golf,3,0,Consumer,123.0,-94.33999634,0.180000007,Valles,San Luis Potosí
0,4,1/11/2015 14:21,Standard Class,LATAM,Central America,38.88562775,-77.01171875,Women's Apparel,Golf,3,0,Consumer,123.0,36.90000153,0.180000007,Juárez,Chihuahua
0,4,1/14/2015 12:46,Standard Class,LATAM,Central America,32.28598785,-106.7935333,Women's Apparel,Golf,3,0,Consumer,123.0,6.150000095,0.180000007,Mixco,Guatemala
1,4,2/12/2017 19:24,Standard Class,LATAM,South America,33.14486313,-117.1681213,Women's Apparel,Golf,3,0,Consumer,123.0,44.27999878,0.180000007,Macapá,Amapá
1,4,5/1/2017 3:53,Standard Class,LATAM,South America,36.16341019,-115.095459,Women's Apparel,Golf,3,0,Consumer,123.0,-4.670000076,0.180000007,Maringá,Paraná
1,4,3/16/2015 6:54,Standard Class,LATAM,South America,32.7651329,-96.5814209,Women's Apparel,Golf,3,0,Consumer,123.0,-98.40000153,0.180000007,João Pessoa,Paraíba
0,4,2/23/2015 8:51,Standard Class,LATAM,Caribbean,40.87593079,-73.91262817,Women's Apparel,Golf,3,0,Consumer,120.0,37.20000076,0.200000003,San José de las Lajas,Mayabeque
1,4,2/15/2015 17:37,Standard Class,LATAM,Caribbean,39.88864136,-84.07601166,Women's Apparel,Golf,3,0,Consumer,120.0,42.0,0.200000003,San Francisco de Macorís,Duarte
0,4,5/10/2017 18:24,Standard Class,LATAM,Central America,34.07184982,-80.95857239,Shop By Sport,Golf,3,0,Consumer,95.98000336,6.050000191,0.200000003,Arraiján,Panamá
1,4,5/24/2017 1:55,Standard Class,LATAM,Central America,32.25922394,-110.9718781,Women's Apparel,Golf,3,0,Consumer,120.0,-210.0,0.200000003,Managua,Managua
0,4,6/9/2017 7:51,Standard Class,LATAM,South America,37.77148056,-122.2670288,Shop By Sport,Golf,3,0,Consumer,95.98000336,-55.86000061,0.200000003,Bayeux,Paraíba
1,4,2/8/2017 15:33,Standard Class,LATAM,South America,40.8079071,-74.47541809,Shop By Sport,Golf,3,0,Consumer,95.98000336,7.199999809,0.200000003,Gravatá,Pernambuco
1,4,5/29/2017 23:49,Standard Class,LATAM,South America,37.79001999,-122.4195938,Women's Apparel,Golf,3,0,Consumer,120.0,12.0,0.200000003,Itajaí,Santa Catarina
1,4,5/8/2017 23:19,Standard Class,LATAM,South America,33.87186432,-118.2019653,Women's Apparel,Golf,3,0,Consumer,120.0,42.0,0.200000003,São Paulo,São Paulo
1,4,5/4/2017 17:43,Standard Class,LATAM,South America,36.82690048,-119.6776962,Women's Apparel,Golf,3,0,Consumer,120.0,39.0,0.200000003,Bogotá,Bogotá
0,4,4/26/2017 10:43,Standard Class,LATAM,South America,37.37883377,-121.8303375,Women's Apparel,Golf,3,0,Consumer,120.0,36.0,0.200000003,Bolívar,Bolívar
0,4,3/30/2017 21:48,Standard Class,LATAM,Caribbean,33.97483063,-118.1829376,Shop By Sport,Golf,3,0,Consumer,89.98000336,35.09000015,0.25,Manzanillo,Granma
0,4,3/7/2015 4:38,Standard Class,LATAM,Caribbean,28.62217712,-81.20755768,Women's Apparel,Golf,3,0,Consumer,112.5,-74.25,0.25,Manzanillo,Granma
0,4,1/29/2017 2:37,Standard Class,LATAM,Caribbean,29.83435631,-95.33792877,Women's Apparel,Golf,3,0,Consumer,112.5,15.52999973,0.25,Baní,Peravia
1,4,1/10/2015 19:46,Standard Class,LATAM,Central America,34.15251541,-118.5712433,Women's Apparel,Golf,3,0,Consumer,112.5,28.12999916,0.25,Tegucigalpa,Francisco Morazán
1,4,3/15/2015 16:53,Standard Class,LATAM,Central America,44.71694946,-84.04858398,Women's Apparel,Golf,3,0,Consumer,112.5,38.02999878,0.25,Managua,Managua
0,4,1/28/2015 0:29,Standard Class,LATAM,Central America,45.54113007,-122.7773743,Women's Apparel,Golf,3,0,Consumer,112.5,52.88000107,0.25,Mixco,Guatemala
1,4,2/2/2015 5:54,Standard Class,LATAM,Central America,43.81871796,-91.22014618,Women's Apparel,Golf,3,0,Consumer,112.5,55.13000107,0.25,Tuxtla Gutiérrez,Chiapas
0,4,2/8/2017 5:24,Standard Class,LATAM,South America,45.35498428,-122.6026993,Shop By Sport,Golf,3,0,Consumer,89.98000336,8.100000381,0.25,Araguaína,Tocantins
1,4,2/17/2017 16:46,Standard Class,LATAM,South America,45.06264877,-122.9813309,Women's Apparel,Golf,3,0,Consumer,112.5,15.52999973,0.25,Salvador,Bahía
0,4,5/27/2015 1:11,Standard Class,LATAM,South America,47.67869949,-122.3217621,Golf Balls,Outdoors,3,0,Consumer,59.97000122,14.98999977,0.0,Quixadá,Ceará
1,4,3/9/2015 1:28,Standard Class,LATAM,Central America,33.42036057,-111.8974457,Accessories,Outdoors,3,0,Consumer,74.22000122,35.63000107,0.01,Rosarito,Baja California
0,4,3/2/2017 14:08,Standard Class,LATAM,South America,41.44255066,-81.70441437,Golf Balls,Outdoors,3,0,Consumer,59.36999893,22.26000023,0.01,Santarém,Pará
0,4,5/23/2015 22:34,Standard Class,LATAM,Central America,39.38328171,-76.534729,Electronics,Outdoors,3,0,Consumer,139.6499939,37.70999908,0.029999999,La Ceiba,Atlántida
0,4,1/10/2015 22:35,Standard Class,LATAM,Central America,32.8013916,-97.3302536,Electronics,Outdoors,3,0,Consumer,151.2899933,-56.72999954,0.029999999,Quetzaltenango,Quezaltenango
0,4,4/22/2015 11:13,Standard Class,LATAM,Central America,34.42259598,-117.303566,Trade-In,Outdoors,3,0,Consumer,46.04999924,5.760000229,0.039999999,Hermosillo,Sonora
0,4,4/18/2015 19:59,Standard Class,LATAM,South America,34.03212357,-84.51288605,Electronics,Outdoors,3,0,Consumer,149.7299957,38.93000031,0.039999999,Sabanalarga,Atlántico
1,4,1/27/2015 13:16,Standard Class,LATAM,Central America,43.5458107,-116.3959656,Accessories,Outdoors,3,0,Consumer,70.84999847,-0.99000001,0.059999999,Guadalajara,Jalisco
0,4,3/5/2017 3:26,Standard Class,LATAM,Central America,34.03234482,-118.3598175,Electronics,Outdoors,3,0,Consumer,89.25,-240.9799957,0.07,Mexico City,Distrito Federal
1,4,5/12/2015 13:39,Standard Class,LATAM,South America,34.60979843,-80.86299896,Accessories,Outdoors,3,0,Consumer,69.72000122,32.77000046,0.07,Rio Branco,Acre
1,4,1/1/2015 4:54,Standard Class,LATAM,South America,35.17372131,-89.94194031,Electronics,Outdoors,3,0,Consumer,89.25,-21.23999977,0.07,Brasília,Distrito Federal
1,4,5/10/2015 14:42,Standard Class,LATAM,Central America,41.51694489,-88.42662811,Accessories,Outdoors,3,0,Consumer,68.22000122,30.70000076,0.090000004,Managua,Managua
0,4,4/16/2015 5:59,Standard Class,LATAM,South America,40.74726105,-74.04908752,Electronics,Outdoors,3,0,Consumer,87.33000183,1.75,0.090000004,Valinhos,São Paulo
0,4,4/11/2015 22:58,Standard Class,LATAM,South America,31.85786057,-106.585701,Electronics,Outdoors,3,0,Consumer,131.0099945,64.19999695,0.090000004,Ocaña,Norte de Santander
1,4,3/17/2017 1:40,Standard Class,LATAM,Central America,35.30034638,-119.2525253,Accessories,Outdoors,3,0,Consumer,65.97000122,23.95000076,0.119999997,David,Chiriquí
0,4,2/15/2017 2:25,Standard Class,LATAM,Caribbean,37.28698349,-121.9564514,Electronics,Outdoors,3,0,Consumer,83.48999786,-19.87000084,0.129999995,Santo Domingo,Santo Domingo
0,4,3/16/2017 19:22,Standard Class,LATAM,South America,39.63720322,-104.8287659,Accessories,Outdoors,3,0,Consumer,65.22000122,22.04999924,0.129999995,Resistencia,Chaco
0,4,4/16/2015 5:59,Standard Class,LATAM,South America,40.74726105,-74.04908752,Golf Balls,Outdoors,3,0,Consumer,52.16999817,15.13000011,0.129999995,Valinhos,São Paulo
1,4,3/18/2015 14:57,Standard Class,LATAM,South America,40.77758408,-74.2411499,Trade-In,Outdoors,3,0,Consumer,41.72999954,18.78000069,0.129999995,Manizales,Caldas
1,4,4/30/2015 19:58,Standard Class,LATAM,Central America,40.87459183,-73.8528595,Accessories,Outdoors,3,0,Consumer,63.72000122,-111.5199966,0.150000006,Puebla,Puebla
0,4,3/25/2015 17:55,Standard Class,LATAM,South America,33.84394455,-117.9417572,Golf Balls,Outdoors,3,0,Consumer,49.77999878,11.44999981,0.170000002,Niterói,Río de Janeiro
1,4,2/3/2015 4:19,Standard Class,LATAM,Caribbean,36.81669235,-121.6491547,Electronics,Outdoors,3,0,Consumer,127.9000015,28.78000069,0.180000007,San Francisco de Macorís,Duarte
1,4,2/28/2015 3:46,Standard Class,LATAM,South America,34.00875855,-117.9636078,Golf Balls,Outdoors,3,0,Consumer,44.97999954,15.19999981,0.25,Ibiúna,São Paulo
0,4,5/27/2015 16:57,Standard Class,LATAM,South America,34.09395981,-117.4498901,Trade-In,Outdoors,3,0,Consumer,35.97999954,9.890000343,0.25,Bom Jesus da Lapa,Bahía
1,4,3/9/2015 8:29,Standard Class,LATAM,Central America,40.90341187,-73.85494232,Hunting & Shooting,Fan Shop,3,0,Consumer,86.37000275,23.3199997,0.039999999,Mexico City,Distrito Federal
0,4,6/17/2017 3:17,Standard Class,LATAM,South America,40.3957901,-111.5488815,Lacrosse,Fitness,3,0,Consumer,278.9700012,128.3300018,0.07,São Miguel dos Campos,Alagoas
0,4,4/2/2015 7:45,Standard Class,LATAM,Central America,43.56373215,-116.3937836,Baseball & Softball,Fitness,3,0,Consumer,86.08000183,9.729999542,0.180000007,Mérida,Yucatán
1,4,4/9/2015 15:37,Standard Class,LATAM,South America,37.63788986,-122.0765686,Cardio Equipment,Footwear,3,0,Consumer,299.9700012,-764.9199829,0.0,Bento Gonçalves,Rio Grande do Sul
1,4,4/26/2017 22:38,Standard Class,LATAM,Central America,33.99481583,-118.3429413,Cardio Equipment,Footwear,3,0,Consumer,296.9700012,33.56000137,0.01,Soyapango,San Salvador
1,4,1/19/2015 12:35,Standard Class,LATAM,Central America,38.80710983,-90.29780579,Cardio Equipment,Footwear,3,0,Consumer,293.9700012,85.25,0.02,Villa Nueva,Guatemala
0,4,3/9/2015 20:03,Standard Class,LATAM,Central America,41.9845047,-87.82324982,Cardio Equipment,Footwear,3,0,Consumer,287.9700012,120.9499969,0.039999999,San Salvador,San Salvador
1,4,1/30/2017 6:59,Standard Class,LATAM,Central America,41.72254562,-88.27864075,Cardio Equipment,Footwear,3,0,Consumer,278.9700012,39.06000137,0.07,Apodaca,Nuevo León
1,4,4/19/2015 17:21,Standard Class,LATAM,Central America,41.54011536,-80.52366638,Cardio Equipment,Footwear,3,0,Consumer,278.9700012,133.9100037,0.07,Tipitapa,Managua
0,4,3/8/2015 10:25,Standard Class,LATAM,South America,26.13326073,-80.25243378,Cardio Equipment,Footwear,3,0,Consumer,269.9700012,33.75,0.100000001,Lima,Lima (ciudad)
0,4,5/3/2015 11:44,Standard Class,LATAM,Central America,29.96774292,-90.03494263,Cardio Equipment,Footwear,3,0,Consumer,263.9700012,73.91000366,0.119999997,Managua,Managua
0,4,3/30/2017 18:17,Standard Class,LATAM,Central America,37.64963532,-120.9959488,Cardio Equipment,Footwear,3,0,Consumer,78.30000305,22.70999908,0.129999995,Poza Rica de Hidalgo,Veracruz
0,4,1/26/2017 2:47,Standard Class,LATAM,Central America,42.39110184,-83.13121796,Cardio Equipment,Footwear,3,0,Consumer,239.9799957,81.11000061,0.200000003,Managua,Managua
0,4,3/24/2017 0:26,Standard Class,LATAM,South America,42.43819809,-83.17873383,Cardio Equipment,Footwear,3,0,Consumer,239.9799957,86.38999939,0.200000003,Ibagué,Tolima
1,4,1/26/2015 12:45,Standard Class,LATAM,Central America,34.26791382,-118.6712112,Cardio Equipment,Footwear,3,0,Consumer,224.9799957,16.87000084,0.25,Córdoba,Veracruz
0,4,4/25/2015 21:54,Standard Class,LATAM,Central America,42.85579681,-78.8303833,Cleats,Apparel,3,0,Consumer,176.3699951,84.66000366,0.02,Choluteca,Choluteca
0,4,4/4/2017 19:10,Standard Class,LATAM,Caribbean,38.29298782,-85.81134796,Cleats,Apparel,3,0,Consumer,174.5700073,-28.45999908,0.029999999,Santo Domingo,Santo Domingo
0,4,4/25/2015 21:54,Standard Class,LATAM,Central America,42.85579681,-78.8303833,Cleats,Apparel,3,0,Consumer,174.5700073,1.75,0.029999999,Choluteca,Choluteca
0,4,6/1/2017 14:31,Standard Class,LATAM,Caribbean,26.21472931,-80.23004913,Cleats,Apparel,3,0,Consumer,170.9700012,-41.54999924,0.050000001,Santiago de Cuba,Santiago de Cuba
1,4,4/16/2015 2:07,Standard Class,LATAM,Central America,34.03212357,-84.51288605,Cleats,Apparel,3,0,Consumer,170.9700012,80.36000061,0.050000001,Managua,Managua
0,4,1/15/2015 2:46,Standard Class,LATAM,Central America,34.06832504,-117.6557541,Cleats,Apparel,3,0,Consumer,163.7700043,55.36000061,0.090000004,Tampico,Tamaulipas
0,4,4/3/2015 18:26,Standard Class,LATAM,Central America,34.20909119,-118.5710068,Cleats,Apparel,3,0,Consumer,163.7700043,59.45000076,0.090000004,Madero,Tamaulipas
0,4,3/10/2017 6:03,Standard Class,LATAM,Caribbean,42.0731163,-87.85407257,Cleats,Apparel,3,0,Consumer,161.9700012,64.79000092,0.100000001,Manzanillo,Granma
1,4,4/7/2017 21:05,Standard Class,LATAM,Central America,37.97107697,-121.7875137,Cleats,Apparel,3,0,Consumer,161.9700012,74.51000214,0.100000001,Puebla,Puebla
0,4,4/3/2015 18:26,Standard Class,LATAM,Central America,34.20909119,-118.5710068,Cleats,Apparel,3,0,Consumer,161.9700012,29.15999985,0.100000001,Madero,Tamaulipas
1,4,1/19/2015 12:35,Standard Class,LATAM,Central America,38.80710983,-90.29780579,Cleats,Apparel,3,0,Consumer,161.9700012,42.11000061,0.100000001,Villa Nueva,Guatemala
0,4,2/4/2015 19:34,Standard Class,LATAM,Central America,42.72396851,-71.18476868,Cleats,Apparel,3,0,Consumer,158.3699951,53.52999878,0.119999997,Mejicanos,San Salvador
1,4,1/19/2015 12:35,Standard Class,LATAM,Central America,38.80710983,-90.29780579,Cleats,Apparel,3,0,Consumer,158.3699951,42.75999832,0.119999997,Villa Nueva,Guatemala
0,4,5/20/2017 21:54,Standard Class,LATAM,South America,32.15084076,-111.0030136,Cleats,Apparel,3,0,Consumer,158.3699951,19.79999924,0.119999997,Nova Serrana,Minas Gerais
0,4,2/19/2015 8:09,Standard Class,LATAM,Caribbean,40.72727966,-74.15975189,Cleats,Apparel,3,0,Consumer,151.1699982,51.40000153,0.159999996,Puerto Padre,Las Tunas
1,4,5/20/2017 7:11,Standard Class,LATAM,Central America,42.74373627,-71.16481781,Cleats,Apparel,3,0,Consumer,151.1699982,68.02999878,0.159999996,Piedras Negras,Coahuila
0,4,2/3/2017 15:44,Standard Class,LATAM,South America,33.0895195,-117.2552032,Cleats,Apparel,3,0,Consumer,151.1699982,71.05000305,0.159999996,Bogotá,Bogotá
0,4,5/28/2015 14:20,Standard Class,LATAM,South America,40.95141602,-74.22407532,Cleats,Apparel,3,0,Consumer,149.3800049,50.49000168,0.170000002,Indaial,Santa Catarina
1,4,5/30/2017 6:49,Standard Class,LATAM,South America,40.3957901,-111.5488815,Cleats,Apparel,3,0,Consumer,149.3800049,18.67000008,0.170000002,Rio Branco,Acre
0,4,5/3/2015 11:44,Standard Class,LATAM,Central America,29.96774292,-90.03494263,Cleats,Apparel,3,0,Consumer,147.5800018,70.83999634,0.180000007,Managua,Managua
0,4,1/30/2015 8:11,Standard Class,LATAM,Central America,33.88898468,-118.2071152,Cleats,Apparel,3,0,Consumer,143.9799957,50.38999939,0.200000003,San Salvador,San Salvador
0,4,1/27/2017 13:49,Standard Class,LATAM,Central America,40.65559006,-73.9330368,Cleats,Apparel,3,0,Consumer,134.9799957,22.95000076,0.25,Villa Nueva,Guatemala
0,4,4/20/2017 19:50,Standard Class,LATAM,Central America,29.45903015,-98.52767181,Cleats,Apparel,3,0,Consumer,134.9799957,-98.94000244,0.25,Panama City,Panamá
0,4,1/30/2015 8:53,Standard Class,LATAM,Central America,39.92448425,-75.1757431,Women's Apparel,Golf,3,0,Consumer,150.0,13.19999981,0.0,Puebla,Puebla
0,4,1/28/2017 4:53,Standard Class,LATAM,South America,40.74559021,-73.97927856,Women's Apparel,Golf,3,0,Consumer,148.5,-13.0699997,0.01,Bogotá,Bogotá
1,4,4/16/2015 2:07,Standard Class,LATAM,Central America,34.03212357,-84.51288605,Women's Apparel,Golf,3,0,Consumer,144.0,51.84000015,0.039999999,Managua,Managua
0,4,2/1/2015 7:50,Standard Class,LATAM,Central America,35.43272018,-119.0332794,Shop By Sport,Golf,3,0,Consumer,113.9700012,6.840000153,0.050000001,Soyapango,San Salvador
1,4,3/10/2015 7:15,Standard Class,LATAM,Central America,33.98547363,-118.3382416,Women's Apparel,Golf,3,0,Consumer,142.5,8.550000191,0.050000001,David,Chiriquí
0,4,5/14/2015 12:15,Standard Class,LATAM,Caribbean,35.20695877,-90.01077271,Women's Apparel,Golf,3,0,Consumer,139.5,64.16999817,0.07,Cárdenas,Matanzas
0,4,2/21/2015 21:28,Standard Class,LATAM,Central America,39.83169174,-120.4956055,Women's Apparel,Golf,3,0,Consumer,139.5,-116.1999969,0.07,Tegucigalpa,Francisco Morazán
0,4,2/20/2017 1:11,Standard Class,LATAM,Central America,39.95728302,-74.19393158,Women's Apparel,Golf,3,0,Consumer,139.5,66.95999908,0.07,Querétaro,Querétaro
0,4,5/5/2015 9:17,Standard Class,LATAM,South America,36.80892944,-86.30784607,Women's Apparel,Golf,3,0,Consumer,136.5,65.51999664,0.090000004,Facatativá,Cundinamarca
1,4,3/10/2017 22:31,Standard Class,LATAM,Central America,27.93759728,-82.2674942,Women's Apparel,Golf,3,0,Consumer,135.0,8.510000229,0.100000001,El Progreso,Yoro
0,4,4/10/2017 22:18,Standard Class,LATAM,Central America,39.69681549,-104.8411789,Women's Apparel,Golf,3,0,Consumer,132.0,26.39999962,0.119999997,Estelí,Estelí
0,4,1/19/2017 3:40,Standard Class,LATAM,Central America,32.87660599,-97.42926025,Shop By Sport,Golf,3,0,Consumer,101.9700012,24.46999931,0.150000006,Tegucigalpa,Francisco Morazán
1,4,6/3/2017 19:26,Standard Class,LATAM,South America,33.82387161,-118.0073929,Women's Apparel,Golf,3,0,Consumer,126.0,-96.63999939,0.159999996,Santiago de Chile,Santiago de Chile
0,4,3/24/2017 0:26,Standard Class,LATAM,South America,42.43819809,-83.17873383,Women's Apparel,Golf,3,0,Consumer,126.0,4.789999962,0.159999996,Ibagué,Tolima
0,4,5/17/2015 1:54,Standard Class,LATAM,South America,40.65486527,-73.58707428,Women's Apparel,Golf,3,0,Consumer,126.0,56.70000076,0.159999996,Santiago de Chile,Santiago de Chile
1,4,6/17/2017 4:20,Standard Class,LATAM,South America,33.48989487,-117.0557785,Women's Apparel,Golf,3,0,Consumer,124.5,38.97000122,0.170000002,Brumado,Bahía
0,4,2/23/2015 15:30,Standard Class,LATAM,Central America,42.54093933,-89.1316452,Women's Apparel,Golf,3,0,Consumer,123.0,59.04000092,0.180000007,Mixco,Guatemala
0,4,1/14/2015 12:04,Standard Class,LATAM,South America,33.9724083,-117.5827484,Women's Apparel,Golf,3,0,Consumer,120.0,57.59999847,0.200000003,Balneário Camboriú,Santa Catarina
0,4,3/4/2015 14:58,Standard Class,LATAM,South America,38.34882355,-121.9724197,Accessories,Outdoors,3,0,Consumer,71.97000122,21.59000015,0.039999999,Pucallpa,Ucayali
1,4,4/19/2017 2:51,Standard Class,LATAM,Central America,42.60770416,-83.93352509,Accessories,Outdoors,3,0,Consumer,63.72000122,5.610000134,0.150000006,Tegucigalpa,Francisco Morazán
0,4,3/15/2017 16:44,Standard Class,LATAM,Central America,43.09559631,-89.35118866,Accessories,Outdoors,3,0,Consumer,62.97000122,20.14999962,0.159999996,La Ceiba,Atlántida
0,4,10/2/2016 4:42,Standard Class,Pacific Asia,West Asia,38.6765976,-121.1606293,Baseball & Softball,Fitness,3,0,Consumer,103.9199982,-79.70999908,0.01,Mascate,Mascate
0,4,2/19/2016 0:28,Standard Class,Pacific Asia,Oceania,41.58304977,-88.05521393,Baseball & Softball,Fitness,3,0,Consumer,174.5700073,50.63000107,0.029999999,Port Macquarie,Nueva Gales del Sur
1,4,3/30/2016 9:31,Standard Class,Pacific Asia,Oceania,41.55319595,-88.07259369,Baseball & Softball,Fitness,3,0,Consumer,167.3699951,50.20999908,0.07,Ballarat,Victoria
1,4,2/13/2016 13:47,Standard Class,Pacific Asia,Oceania,36.54824066,-87.37922669,Baseball & Softball,Fitness,3,0,Consumer,97.62000275,-175.7200012,0.07,Brisbane,Queensland
1,4,1/18/2016 1:55,Standard Class,Pacific Asia,Southeast Asia,25.97953987,-80.19422913,Tennis & Racquet,Fitness,3,0,Consumer,122.8199997,19.64999962,0.090000004,Jayapura,Papua
0,4,2/3/2016 13:06,Standard Class,Pacific Asia,Eastern Asia,26.00983048,-80.22595978,Lacrosse,Fitness,3,0,Consumer,67.47000122,6.75,0.100000001,Shantou,Guangdong
0,4,11/18/2015 15:50,Standard Class,Pacific Asia,South Asia,40.0230751,-82.8732605,Baseball & Softball,Fitness,3,0,Consumer,92.37000275,3.690000057,0.119999997,Bareilly,Uttar Pradesh
0,4,11/17/2015 12:30,Standard Class,Pacific Asia,Oceania,34.15390396,-118.5961914,Baseball & Softball,Fitness,3,0,Consumer,91.3199997,-22.82999992,0.129999995,Adelaide,Australia del Sur
0,4,1/12/2016 9:38,Standard Class,Pacific Asia,Oceania,34.10403824,-117.6700363,Baseball & Softball,Fitness,3,0,Consumer,89.22000122,11.14999962,0.150000006,Ballarat,Victoria
0,4,12/26/2015 9:28,Standard Class,Pacific Asia,Eastern Asia,30.35012245,-97.69873047,Cardio Equipment,Footwear,3,0,Consumer,299.9700012,22.5,0.0,Guilin,Guangxi
0,4,3/20/2016 1:28,Standard Class,Pacific Asia,Oceania,33.58086395,-112.2466431,Cardio Equipment,Footwear,3,0,Consumer,299.9700012,108.8899994,0.0,Christchurch,Canterbury
0,4,3/26/2016 15:08,Standard Class,Pacific Asia,Oceania,39.95072174,-74.15543366,Cardio Equipment,Footwear,3,0,Consumer,299.9700012,143.9900055,0.0,Gisborne,Gisborne
0,4,3/6/2016 6:45,Standard Class,Pacific Asia,Oceania,39.27495956,-76.61506653,Electronics,Footwear,3,0,Consumer,134.9700012,59.38999939,0.0,Cairns,Queensland
0,4,12/21/2015 21:34,Standard Class,Pacific Asia,Oceania,40.84032059,-73.88459015,Cardio Equipment,Footwear,3,0,Consumer,89.09999847,40.99000168,0.01,Gold Coast,Queensland
0,4,12/17/2015 0:12,Standard Class,Pacific Asia,South Asia,26.28325081,-80.09656525,Fitness Accessories,Footwear,3,0,Consumer,102.8700027,37.34000015,0.02,Karimnagar,Telangana
1,4,11/16/2015 3:34,Standard Class,Pacific Asia,Southeast Asia,34.01502609,-118.10672,Cardio Equipment,Footwear,3,0,Consumer,293.9700012,102.8899994,0.02,Ho Chi Minh City,Ciudad Ho Chi Minh
0,4,1/3/2017 3:00,Standard Class,Pacific Asia,West Asia,41.80496597,-87.81993866,Electronics,Footwear,3,0,Consumer,94.05000305,-65.83999634,0.02,Tiflis,Tiflis
1,4,11/16/2015 3:34,Standard Class,Pacific Asia,Southeast Asia,34.01502609,-118.10672,Cardio Equipment,Footwear,3,0,Consumer,290.9700012,90.19999695,0.029999999,Ho Chi Minh City,Ciudad Ho Chi Minh
0,4,12/4/2015 11:57,Standard Class,Pacific Asia,Southeast Asia,28.63303757,-81.45867157,Cardio Equipment,Footwear,3,0,Consumer,290.9700012,65.47000122,0.029999999,Kendari,Célebes Suroriental
1,4,12/8/2015 13:42,Standard Class,Pacific Asia,Oceania,35.19882584,-89.90473938,Cardio Equipment,Footwear,3,0,Consumer,284.9700012,103.4400024,0.050000001,Geelong,Victoria
0,4,10/25/2015 3:36,Standard Class,Pacific Asia,Southeast Asia,40.79290009,-73.94426727,Cardio Equipment,Footwear,3,0,Consumer,284.9700012,82.63999939,0.050000001,Kota Kinabalu,Sabah
0,4,9/24/2016 19:47,Standard Class,Pacific Asia,West Asia,30.00682259,-90.06139374,Cardio Equipment,Footwear,3,0,Consumer,284.9700012,54.13999939,0.050000001,Estambul,Estambul
1,4,2/22/2016 15:00,Standard Class,Pacific Asia,Eastern Asia,41.73739243,-87.56648254,Cardio Equipment,Footwear,3,0,Consumer,283.4700012,110.5500031,0.059999999,Chaozhou,Guangdong
0,4,2/16/2016 21:19,Standard Class,Pacific Asia,Oceania,42.39391327,-83.00836945,Cardio Equipment,Footwear,3,0,Consumer,283.4700012,110.5500031,0.059999999,Geelong,Victoria
0,4,1/13/2016 19:16,Standard Class,Pacific Asia,Oceania,-33.93755341,18.57143784,Cardio Equipment,Footwear,3,0,Consumer,278.9700012,-437.1499939,0.07,Melbourne,Victoria
0,4,3/17/2016 19:52,Standard Class,Pacific Asia,Southeast Asia,41.89567947,-87.69122315,Cardio Equipment,Footwear,3,0,Consumer,278.9700012,75.3199997,0.07,Rangún,Rangún
1,4,11/13/2015 16:22,Standard Class,Pacific Asia,Southeast Asia,42.71463394,-71.16407776,Cardio Equipment,Footwear,3,0,Consumer,278.9700012,27.89999962,0.07,Bangkok,Bangkok
1,4,2/16/2016 11:51,Standard Class,Pacific Asia,Oceania,33.83944702,-118.1929245,Cardio Equipment,Footwear,3,0,Consumer,272.9700012,-177.4299927,0.090000004,Sydney,Nueva Gales del Sur
0,4,1/7/2016 11:13,Standard Class,Pacific Asia,Oceania,42.41796112,-83.25804138,Cardio Equipment,Footwear,3,0,Consumer,272.9700012,40.95000076,0.090000004,Ballarat,Victoria
0,4,11/3/2015 10:25,Standard Class,Pacific Asia,Southeast Asia,33.67925263,-117.9953003,Cardio Equipment,Footwear,3,0,Consumer,272.9700012,106.4599991,0.090000004,Singapur,Singapur
0,4,12/10/2015 17:12,Standard Class,Pacific Asia,Southeast Asia,29.59053612,-98.6216507,Electronics,Footwear,3,0,Consumer,76.41000366,13.36999989,0.090000004,Manila,Capital Nacional
1,4,1/24/2016 9:58,Standard Class,Pacific Asia,Oceania,39.13246918,-84.59480286,Cardio Equipment,Footwear,3,0,Consumer,263.9700012,85.79000092,0.119999997,Mandurah,Australia Occidental
1,4,1/10/2017 21:02,Standard Class,Pacific Asia,West Asia,33.92589569,-118.2240982,Cardio Equipment,Footwear,3,0,Consumer,263.9700012,43.02999878,0.119999997,Amman,Amán
1,4,11/10/2015 10:56,Standard Class,Pacific Asia,Eastern Asia,40.08982086,-82.99195862,Cardio Equipment,Footwear,3,0,Consumer,260.9700012,122.6600037,0.129999995,Quanzhou,Fujian
1,4,12/1/2015 3:02,Standard Class,Pacific Asia,Oceania,40.73192978,-73.8688736,Cardio Equipment,Footwear,3,0,Consumer,254.9700012,79.80999756,0.150000006,Brisbane,Queensland
1,4,11/12/2015 7:05,Standard Class,Pacific Asia,Oceania,38.69150925,-121.3033371,Boxing & MMA,Footwear,3,0,Consumer,138.5200043,65.11000061,0.159999996,Canberra,Territorio de la Capital Australiana
0,4,11/13/2015 15:40,Standard Class,Pacific Asia,South Asia,40.00903702,-76.39564514,Fitness Accessories,Footwear,3,0,Consumer,88.16999817,42.3199997,0.159999996,Durg,Chhattisgarh
0,4,11/24/2015 15:29,Standard Class,Pacific Asia,Eastern Asia,31.83481979,-106.5510864,Cardio Equipment,Footwear,3,0,Consumer,248.9799957,72.19999695,0.170000002,Tieling,Liaoning
1,4,11/10/2015 6:02,Standard Class,Pacific Asia,Oceania,42.90983582,-85.68525696,Electronics,Footwear,3,0,Consumer,79.66000366,5.96999979,0.170000002,Caloundra,Queensland
1,4,11/17/2015 18:07,Standard Class,Pacific Asia,Eastern Asia,26.88982964,-82.21653748,Cardio Equipment,Footwear,3,0,Consumer,245.9799957,113.1500015,0.180000007,Nantong,Jiangsu
1,4,2/27/2016 19:01,Standard Class,Pacific Asia,Eastern Asia,44.72552109,-93.20613098,Cardio Equipment,Footwear,3,0,Consumer,245.9799957,71.33000183,0.180000007,Jingmen,Hubei
1,4,3/6/2016 21:49,Standard Class,Pacific Asia,Oceania,33.79825974,-112.1687851,Cardio Equipment,Footwear,3,0,Consumer,245.9799957,63.95000076,0.180000007,Sydney,Nueva Gales del Sur
1,4,12/1/2016 0:04,Standard Class,Pacific Asia,West Asia,29.77441025,-95.74694824,Cardio Equipment,Footwear,3,0,Consumer,245.9799957,-188.6600037,0.180000007,Bagdad,Bagdad
1,4,3/31/2016 3:23,Standard Class,Pacific Asia,Oceania,34.07189179,-118.0138855,Cleats,Apparel,3,0,Consumer,179.9700012,61.18999863,0.0,Auckland,Auckland
1,4,3/14/2016 11:59,Standard Class,Pacific Asia,Oceania,37.77098084,-122.4631882,Cleats,Apparel,3,0,Consumer,179.9700012,65.33000183,0.0,Armidale,Nueva Gales del Sur
0,4,11/8/2015 14:27,Standard Class,Pacific Asia,Oceania,39.78001022,-121.6163712,Cleats,Apparel,3,0,Consumer,179.9700012,67.48999786,0.0,Bendigo,Victoria
0,4,3/21/2016 2:21,Standard Class,Pacific Asia,Oceania,37.18563843,-93.30171204,Cleats,Apparel,3,0,Consumer,179.9700012,62.99000168,0.0,Gold Coast,Queensland
0,4,11/20/2015 3:13,Standard Class,Pacific Asia,Southeast Asia,34.23563004,-118.4847031,Cleats,Apparel,3,0,Consumer,179.9700012,80.98999786,0.0,Rangún,Rangún
0,4,10/25/2015 15:31,Standard Class,Pacific Asia,Southeast Asia,39.60168457,-107.0304413,Cleats,Apparel,3,0,Consumer,179.9700012,89.98999786,0.0,Yogyakarta,Yogyakarta
1,4,8/27/2016 4:03,Standard Class,Pacific Asia,West Asia,34.09928513,-84.21343231,Cleats,Apparel,3,0,Consumer,179.9700012,46.79000092,0.0,Bagdad,Bagdad
0,4,11/7/2016 13:04,Standard Class,Pacific Asia,Central Asia,42.83187103,-86.07852173,Cleats,Apparel,3,0,Consumer,178.1699982,89.08999634,0.01,Kokshetau,Akmola
1,4,12/25/2015 19:07,Standard Class,Pacific Asia,South Asia,25.98771095,-80.25540161,Cleats,Apparel,3,0,Consumer,178.1699982,-31.18000031,0.01,Pune,Maharashtra
1,4,12/29/2016 5:59,Standard Class,Pacific Asia,West Asia,32.7651329,-96.5814209,Cleats,Apparel,3,0,Consumer,178.1699982,51.66999817,0.01,Estambul,Estambul
1,4,12/19/2015 20:52,Standard Class,Pacific Asia,South Asia,33.04647064,-117.2896729,Cleats,Apparel,3,0,Consumer,176.3699951,28.75,0.02,Latur,Maharashtra
0,4,2/22/2016 12:12,Standard Class,Pacific Asia,South Asia,29.86195946,-95.64417267,Cleats,Apparel,3,0,Consumer,176.3699951,51.15000153,0.02,Ratlam,Madhya Pradesh
0,4,10/28/2015 12:11,Standard Class,Pacific Asia,Eastern Asia,33.47337341,-112.1697769,Cleats,Apparel,3,0,Consumer,174.5700073,47.13000107,0.029999999,Zhumadian,Henan
0,4,3/20/2016 1:28,Standard Class,Pacific Asia,Oceania,33.58086395,-112.2466431,Cleats,Apparel,3,0,Consumer,174.5700073,-17.45999908,0.029999999,Christchurch,Canterbury
0,4,2/22/2016 12:12,Standard Class,Pacific Asia,South Asia,29.86195946,-95.64417267,Cleats,Apparel,3,0,Consumer,174.5700073,57.61000061,0.029999999,Ratlam,Madhya Pradesh
0,4,9/4/2016 17:42,Standard Class,Pacific Asia,South Asia,40.62195587,-111.9332733,Cleats,Apparel,3,0,Consumer,174.5700073,45.38999939,0.029999999,Amol,Mazandarán
1,4,11/28/2015 6:22,Standard Class,Pacific Asia,Southeast Asia,21.343153,-157.906601,Cleats,Apparel,3,0,Consumer,174.5700073,54.63999939,0.029999999,Bangkok,Bangkok
0,4,11/1/2015 5:10,Standard Class,Pacific Asia,Southeast Asia,27.50863648,-99.50951386,Cleats,Apparel,3,0,Consumer,174.5700073,52.36999893,0.029999999,Rangún,Rangún
0,4,12/4/2016 6:32,Standard Class,Pacific Asia,West Asia,34.26103973,-118.5636902,Cleats,Apparel,3,0,Consumer,174.5700073,80.30000305,0.029999999,Samsun,Samsun
0,4,11/20/2016 3:45,Standard Class,Pacific Asia,West Asia,32.7514801,-117.1934433,Cleats,Apparel,3,0,Consumer,172.7700043,-17.28000069,0.039999999,Riyadh,Riad
0,4,1/17/2017 16:59,Standard Class,Pacific Asia,West Asia,29.52998352,-98.60829163,Cleats,Apparel,3,0,Consumer,172.7700043,60.47000122,0.039999999,Karbala,Karbala
1,4,11/15/2015 22:19,Standard Class,Pacific Asia,Southeast Asia,33.45040512,-111.9264069,Cleats,Apparel,3,0,Consumer,170.9700012,59.84000015,0.050000001,Kediri,Java Oriental
0,4,1/18/2016 9:37,Standard Class,Pacific Asia,Southeast Asia,37.69598389,-122.4800415,Cleats,Apparel,3,0,Consumer,170.9700012,80.36000061,0.050000001,Ho Chi Minh City,Ciudad Ho Chi Minh
0,4,1/10/2017 15:25,Standard Class,Pacific Asia,West Asia,32.27982712,-110.9582291,Cleats,Apparel,3,0,Consumer,170.9700012,-10.09000015,0.050000001,Corlu,Tekirdag
0,4,1/22/2016 20:07,Standard Class,Pacific Asia,Oceania,41.895607,-87.70032501,Cleats,Apparel,3,0,Consumer,170.0700073,-255.1100006,0.059999999,Wagga Wagga,Nueva Gales del Sur
0,4,12/31/2016 11:35,Standard Class,Pacific Asia,South Asia,28.08182716,-82.46191406,Cleats,Apparel,3,0,Consumer,170.0700073,-263.6099854,0.059999999,Yazd,Yazd
0,4,2/6/2016 3:28,Standard Class,Pacific Asia,South Asia,40.66373444,-73.94798279,Cleats,Apparel,3,0,Consumer,170.0700073,-289.1199951,0.059999999,Tirunelveli,Tamil Nadu
1,4,1/26/2016 23:37,Standard Class,Pacific Asia,Southeast Asia,26.15128136,-80.21017456,Cleats,Apparel,3,0,Consumer,170.0700073,-272.1099854,0.059999999,Manila,Capital Nacional
0,4,1/10/2017 15:25,Standard Class,Pacific Asia,West Asia,32.27982712,-110.9582291,Cleats,Apparel,3,0,Consumer,170.0700073,30.61000061,0.059999999,Corlu,Tekirdag
0,4,11/15/2015 7:57,Standard Class,Pacific Asia,Oceania,32.83720017,-97.49458313,Cleats,Apparel,3,0,Consumer,167.3699951,-128.3699951,0.07,Newcastle,Nueva Gales del Sur
1,4,10/29/2016 2:02,Standard Class,Pacific Asia,South Asia,32.75012589,-117.1374207,Cleats,Apparel,3,0,Consumer,167.3699951,78.66000366,0.07,Yazd,Yazd
0,4,1/12/2016 18:23,Standard Class,Pacific Asia,South Asia,37.77796936,-121.9719162,Cleats,Apparel,3,0,Consumer,167.3699951,54.40000153,0.07,Khulna,Khulna
1,4,1/5/2016 7:22,Standard Class,Pacific Asia,South Asia,35.81311417,-84.17388916,Cleats,Apparel,3,0,Consumer,167.3699951,-10.53999996,0.07,Guntur,Andhra Pradesh
0,4,1/10/2017 15:25,Standard Class,Pacific Asia,West Asia,32.27982712,-110.9582291,Cleats,Apparel,3,0,Consumer,167.3699951,66.94999695,0.07,Corlu,Tekirdag
1,4,11/1/2016 3:37,Standard Class,Pacific Asia,Central Asia,40.1901207,-105.1010666,Cleats,Apparel,3,0,Consumer,163.7700043,-21.12999916,0.090000004,Almaty,Ciudad de Almatý
1,4,3/8/2016 7:06,Standard Class,Pacific Asia,Eastern Asia,33.98527527,-117.3377075,Cleats,Apparel,3,0,Consumer,163.7700043,42.58000183,0.090000004,Suzhou,Anhui
0,4,2/9/2016 13:47,Standard Class,Pacific Asia,Eastern Asia,36.72061157,-119.9411163,Cleats,Apparel,3,0,Consumer,163.7700043,73.69999695,0.090000004,Hangzhou,Zhejiang
1,4,3/26/2016 10:55,Standard Class,Pacific Asia,Oceania,40.8079071,-74.47541809,Cleats,Apparel,3,0,Consumer,163.7700043,40.93999863,0.090000004,Hastings,Hawke's Bay
0,4,3/4/2016 14:27,Standard Class,Pacific Asia,Eastern Asia,39.45571137,-77.96917725,Cleats,Apparel,3,0,Consumer,161.9700012,58.79999924,0.100000001,Jining,Shandong
0,4,1/7/2016 2:27,Standard Class,Pacific Asia,Oceania,34.07189179,-118.0138855,Cleats,Apparel,3,0,Consumer,161.9700012,69.65000153,0.100000001,Brisbane,Queensland
0,4,1/10/2017 1:25,Standard Class,Pacific Asia,South Asia,29.7805748,-95.17199707,Cleats,Apparel,3,0,Consumer,161.9700012,58.79999924,0.100000001,Teherán,Teherán
1,4,12/2/2016 9:21,Standard Class,Pacific Asia,West Asia,41.6971283,-87.67146301,Cleats,Apparel,3,0,Consumer,161.9700012,-113.3799973,0.100000001,Konya,Konya
0,4,12/28/2015 12:59,Standard Class,Pacific Asia,Eastern Asia,39.95626831,-75.22203064,Cleats,Apparel,3,0,Consumer,158.3699951,74.44000244,0.119999997,Zhengzhou,Henan
1,4,2/9/2016 6:05,Standard Class,Pacific Asia,Oceania,35.36254501,-119.0186996,Cleats,Apparel,3,0,Consumer,158.3699951,11.88000011,0.119999997,Mackay,Queensland
1,4,1/16/2016 23:38,Standard Class,Pacific Asia,South Asia,35.15819168,-89.78479767,Cleats,Apparel,3,0,Consumer,158.3699951,-9.029999733,0.119999997,Patna,Bihar
0,4,1/31/2016 0:19,Standard Class,Pacific Asia,Southeast Asia,42.03620529,-87.96143341,Cleats,Apparel,3,0,Consumer,158.3699951,49.5699997,0.119999997,Pematangsiantar,Sumatra Septentrional
0,4,9/6/2016 14:12,Standard Class,Pacific Asia,West Asia,42.77295685,-84.43538666,Cleats,Apparel,3,0,Consumer,158.3699951,76.01999664,0.119999997,Estambul,Estambul
0,4,12/13/2015 7:55,Standard Class,Pacific Asia,Southeast Asia,34.23563004,-118.4847031,Cleats,Apparel,3,0,Consumer,156.5700073,33.04000092,0.129999995,Bangkok,Bangkok
0,4,11/21/2015 14:36,Standard Class,Pacific Asia,Southeast Asia,34.26102829,-118.4290619,Cleats,Apparel,3,0,Consumer,152.9700012,73.43000031,0.150000006,Manila,Capital Nacional
0,4,3/10/2016 15:51,Standard Class,Pacific Asia,Southeast Asia,41.44394302,-82.72502136,Cleats,Apparel,3,0,Consumer,152.9700012,68.83999634,0.150000006,Valenzuela,Capital Nacional
0,4,10/18/2016 23:57,Standard Class,Pacific Asia,Central Asia,42.33019257,-83.39046478,Cleats,Apparel,3,0,Consumer,151.1699982,71.05000305,0.159999996,Pavlodar,Pavlodar
1,4,11/25/2015 13:54,Standard Class,Pacific Asia,Eastern Asia,40.54027557,-74.16858673,Cleats,Apparel,3,0,Consumer,151.1699982,13.30000019,0.159999996,Matsudo,Chiba
0,4,1/10/2016 11:02,Standard Class,Pacific Asia,Oceania,35.36254501,-119.0186996,Cleats,Apparel,3,0,Consumer,151.1699982,74.08000183,0.159999996,Canberra,Territorio de la Capital Australiana
1,4,1/16/2017 4:54,Standard Class,Pacific Asia,South Asia,34.16981888,-118.3789902,Cleats,Apparel,3,0,Consumer,151.1699982,52.90999985,0.159999996,Kerman,Kerman
0,4,1/16/2016 19:26,Standard Class,Pacific Asia,Southeast Asia,41.46937943,-81.8217926,Cleats,Apparel,3,0,Consumer,151.1699982,39.31000137,0.159999996,Palembang,Sumatra Meridional
1,4,3/6/2016 21:49,Standard Class,Pacific Asia,Oceania,33.79825974,-112.1687851,Cleats,Apparel,3,0,Consumer,149.3800049,68.70999908,0.170000002,Sydney,Nueva Gales del Sur
0,4,3/25/2016 9:42,Standard Class,Pacific Asia,Oceania,41.35353088,-82.21324921,Cleats,Apparel,3,0,Consumer,149.3800049,50.49000168,0.170000002,Invercargill,Southland
1,4,1/25/2016 3:50,Standard Class,Pacific Asia,Southeast Asia,37.61985397,-77.32499695,Cleats,Apparel,3,0,Consumer,149.3800049,-114.5699997,0.170000002,Medan,Sumatra Septentrional
1,4,12/6/2015 7:03,Standard Class,Pacific Asia,South Asia,27.91247559,-82.3192749,Cleats,Apparel,3,0,Consumer,147.5800018,51.65000153,0.180000007,Surat,Guyarat
0,4,8/31/2016 19:28,Standard Class,Pacific Asia,West Asia,43.20556259,-123.3465195,Cleats,Apparel,3,0,Consumer,147.5800018,72.30999756,0.180000007,Sivas,Sivas
1,4,1/8/2017 9:28,Standard Class,Pacific Asia,South Asia,40.65486527,-73.58707428,Cleats,Apparel,3,0,Consumer,143.9799957,-31.23999977,0.200000003,Zahedan,Sistán y Baluchistán
0,4,1/9/2016 17:31,Standard Class,Pacific Asia,Southeast Asia,42.28635407,-71.65921783,Cleats,Apparel,3,0,Consumer,143.9799957,35.99000168,0.200000003,Cainta,Calabarzón
1,4,8/27/2016 14:55,Standard Class,Pacific Asia,West Asia,45.35498428,-122.6026993,Cleats,Apparel,3,0,Consumer,143.9799957,23.46999931,0.200000003,Kozan,Adana
0,4,11/12/2015 18:18,Standard Class,Pacific Asia,Oceania,41.72460938,-88.0645752,Cleats,Apparel,3,0,Consumer,134.9799957,39.13999939,0.25,Adelaide,Australia del Sur
0,4,12/12/2016 10:23,Standard Class,Pacific Asia,West Asia,32.87078095,-97.32335663,Cleats,Apparel,3,0,Consumer,134.9799957,12.14999962,0.25,Gaziantep,Gaziantep
0,4,2/10/2016 2:03,Standard Class,Pacific Asia,Eastern Asia,33.43081665,-111.8384018,Women's Apparel,Golf,3,0,Consumer,150.0,57.0,0.0,Yongchuan,Chongqing
1,4,3/25/2016 19:09,Standard Class,Pacific Asia,Oceania,32.69542313,-117.0990067,Women's Apparel,Golf,3,0,Consumer,150.0,-7.5,0.0,Wellington,Wellington
0,4,10/27/2015 23:55,Standard Class,Pacific Asia,Oceania,41.1966362,-73.08577728,Women's Apparel,Golf,3,0,Consumer,150.0,64.5,0.0,Melbourne,Victoria
0,4,12/20/2015 15:05,Standard Class,Pacific Asia,Southeast Asia,39.264534,-76.46411896,Women's Apparel,Golf,3,0,Consumer,150.0,18.75,0.0,Surabaya,Java Oriental
0,4,3/3/2016 15:20,Standard Class,Pacific Asia,Southeast Asia,38.05592346,-121.1887054,Shop By Sport,Golf,3,0,Consumer,89.09999847,40.99000168,0.01,Tegal,Java Central
1,4,12/3/2015 2:19,Standard Class,Pacific Asia,Southeast Asia,33.97934723,-118.2500534,Women's Apparel,Golf,3,0,Consumer,148.5,25.25,0.01,Manila,Capital Nacional
0,4,10/5/2016 16:47,Standard Class,Pacific Asia,West Asia,33.78982544,-118.1819992,Women's Apparel,Golf,3,0,Consumer,148.5,38.61000061,0.01,Gaziantep,Gaziantep
0,4,3/25/2016 9:42,Standard Class,Pacific Asia,Oceania,41.35353088,-82.21324921,Women's Apparel,Golf,3,0,Consumer,147.0,5.440000057,0.02,Invercargill,Southland
1,4,12/26/2015 14:23,Standard Class,Pacific Asia,South Asia,28.57764053,-81.44708252,Shop By Sport,Golf,3,0,Consumer,117.5699997,11.76000023,0.02,Sangli,Maharashtra
0,4,9/12/2016 21:54,Standard Class,Pacific Asia,South Asia,40.68805313,-73.82411957,Women's Apparel,Golf,3,0,Consumer,147.0,41.15999985,0.02,Masjed Soleyman,Juzestán
0,4,3/1/2016 19:33,Standard Class,Pacific Asia,Southeast Asia,39.95672989,-75.19525909,Shop By Sport,Golf,3,0,Consumer,88.19999695,1.149999976,0.02,Bangkok,Bangkok
1,4,12/31/2015 0:53,Standard Class,Pacific Asia,Southeast Asia,37.80408478,-122.4188538,Women's Apparel,Golf,3,0,Consumer,147.0,52.91999817,0.02,Depok,Java Occidental
1,4,11/25/2016 19:41,Standard Class,Pacific Asia,West Asia,42.43497467,-83.02230835,Women's Apparel,Golf,3,0,Consumer,147.0,51.45000076,0.02,Estambul,Estambul
0,4,11/12/2015 8:08,Standard Class,Pacific Asia,Oceania,37.71640396,-122.4407883,Women's Apparel,Golf,3,0,Consumer,145.5,42.20000076,0.029999999,Adelaide,Australia del Sur
0,4,3/28/2016 16:32,Standard Class,Pacific Asia,Oceania,28.10211754,-82.51211548,Women's Apparel,Golf,3,0,Consumer,145.5,65.48000336,0.029999999,Lower Hutt,Wellington
0,4,11/20/2015 4:58,Standard Class,Pacific Asia,South Asia,40.75481033,-74.1746521,Women's Apparel,Golf,3,0,Consumer,145.5,-101.8499985,0.029999999,Pune,Maharashtra
1,4,2/21/2016 19:44,Standard Class,Pacific Asia,South Asia,40.72668076,-73.97971344,Women's Apparel,Golf,3,0,Consumer,145.5,-152.7799988,0.029999999,Chandigarh,Chandigarh
0,4,11/24/2015 22:50,Standard Class,Pacific Asia,Southeast Asia,42.71463394,-71.16407776,Women's Apparel,Golf,3,0,Consumer,145.5,0.0,0.029999999,Samarinda,Kalimantan Oriental
0,4,12/30/2015 17:32,Standard Class,Pacific Asia,Oceania,37.80408478,-122.4188538,Women's Apparel,Golf,3,0,Consumer,144.0,14.39999962,0.039999999,Sydney,Nueva Gales del Sur
0,4,12/24/2015 19:17,Standard Class,Pacific Asia,Oceania,29.80868912,-95.26977539,Women's Apparel,Golf,3,0,Consumer,144.0,70.55999756,0.039999999,Brisbane,Queensland
0,4,1/20/2016 7:31,Standard Class,Pacific Asia,Southeast Asia,30.16081619,-81.72215271,Shop By Sport,Golf,3,0,Consumer,115.1699982,40.31000137,0.039999999,Semarang,Java Central
0,4,11/19/2015 1:18,Standard Class,Pacific Asia,Southeast Asia,40.70170975,-73.80841827,Shop By Sport,Golf,3,0,Consumer,115.1699982,9.210000038,0.039999999,Bandung,Java Occidental
0,4,11/20/2015 3:13,Standard Class,Pacific Asia,Southeast Asia,34.23563004,-118.4847031,Women's Apparel,Golf,3,0,Consumer,144.0,67.68000031,0.039999999,Rangún,Rangún
1,4,1/11/2016 6:39,Standard Class,Pacific Asia,Southeast Asia,21.32080078,-157.8613892,Women's Apparel,Golf,3,0,Consumer,144.0,14.39999962,0.039999999,Yakarta,Yakarta
0,4,1/7/2016 7:42,Standard Class,Pacific Asia,Oceania,28.10211754,-82.51211548,Women's Apparel,Golf,3,0,Consumer,142.5,49.88000107,0.050000001,Melbourne,Victoria
0,4,12/15/2015 23:41,Standard Class,Pacific Asia,Southeast Asia,35.77666092,-81.36262512,Women's Apparel,Golf,3,0,Consumer,142.5,48.16999817,0.050000001,Surabaya,Java Oriental
1,4,11/12/2016 21:38,Standard Class,Pacific Asia,West Asia,38.83726883,-97.6128006,Shop By Sport,Golf,3,0,Consumer,113.9700012,29.62999916,0.050000001,Bagdad,Bagdad
0,4,11/11/2015 19:52,Standard Class,Pacific Asia,Eastern Asia,40.62810135,-73.96759033,Women's Apparel,Golf,3,0,Consumer,141.75,-10.06000042,0.059999999,Lanzhou,Gansu
0,4,12/18/2015 16:30,Standard Class,Pacific Asia,Oceania,39.29245377,-76.56921387,Shop By Sport,Golf,3,0,Consumer,113.3700027,13.60000038,0.059999999,Melbourne,Victoria
1,4,2/13/2016 13:47,Standard Class,Pacific Asia,Oceania,36.54824066,-87.37922669,Shop By Sport,Golf,3,0,Consumer,113.3700027,34.00999832,0.059999999,Brisbane,Queensland
0,4,1/1/2016 15:04,Standard Class,Pacific Asia,South Asia,34.03364945,-118.144371,Women's Apparel,Golf,3,0,Consumer,141.75,-7.090000153,0.059999999,Kanpur,Uttar Pradesh
0,4,1/27/2016 0:40,Standard Class,Pacific Asia,Southeast Asia,41.47225571,-90.45683289,Women's Apparel,Golf,3,0,Consumer,141.75,51.45999908,0.059999999,Yakarta,Yakarta
0,4,1/9/2016 17:31,Standard Class,Pacific Asia,Southeast Asia,42.28635407,-71.65921783,Women's Apparel,Golf,3,0,Consumer,141.75,46.77999878,0.059999999,Cainta,Calabarzón
1,4,1/15/2016 14:00,Standard Class,Pacific Asia,Southeast Asia,39.81664658,-74.98467255,Women's Apparel,Golf,3,0,Consumer,141.75,44.36999893,0.059999999,Depok,Yogyakarta
1,4,2/13/2016 13:47,Standard Class,Pacific Asia,Oceania,36.54824066,-87.37922669,Shop By Sport,Golf,3,0,Consumer,111.5699997,2.230000019,0.07,Brisbane,Queensland
1,4,1/19/2016 16:06,Standard Class,Pacific Asia,South Asia,40.8907814,-73.85758209,Shop By Sport,Golf,3,0,Consumer,111.5699997,54.66999817,0.07,Nizamabad,Telangana
1,4,1/9/2016 14:43,Standard Class,Pacific Asia,Southeast Asia,38.70825958,-77.01537323,Shop By Sport,Golf,3,0,Consumer,109.1699982,12.34000015,0.090000004,Kuantan,Pahang
1,4,11/19/2015 3:45,Standard Class,Pacific Asia,Southeast Asia,34.63919449,-120.477684,Women's Apparel,Golf,3,0,Consumer,136.5,40.95000076,0.090000004,Jambi,Jambi
0,4,3/12/2016 9:33,Standard Class,Pacific Asia,Southeast Asia,30.20363426,-97.7858963,Women's Apparel,Golf,3,0,Consumer,136.5,42.72000122,0.090000004,Bandung,Java Occidental
0,4,1/20/2016 19:46,Standard Class,Pacific Asia,Eastern Asia,39.52199173,-119.8001633,Women's Apparel,Golf,3,0,Consumer,135.0,47.25,0.100000001,Kita-ku,Hyogo
0,4,3/16/2016 12:20,Standard Class,Pacific Asia,Oceania,29.46007919,-98.52754211,Women's Apparel,Golf,3,0,Consumer,135.0,1.620000005,0.100000001,Townsville,Queensland
1,4,12/31/2016 23:09,Standard Class,Pacific Asia,West Asia,34.0472908,-118.0503235,Women's Apparel,Golf,3,0,Consumer,135.0,-1.75999999,0.100000001,Tiflis,Tiflis
1,4,2/13/2016 13:47,Standard Class,Pacific Asia,Oceania,36.54824066,-87.37922669,Girls' Apparel,Golf,3,0,Consumer,184.8000031,53.59000015,0.119999997,Brisbane,Queensland
1,4,3/15/2016 5:31,Standard Class,Pacific Asia,South Asia,36.82347107,-121.377739,Shop By Sport,Golf,3,0,Consumer,105.5699997,36.95000076,0.119999997,Sargodha,Punyab
0,4,3/3/2016 22:21,Standard Class,Pacific Asia,South Asia,33.83177567,-118.2174606,Women's Apparel,Golf,3,0,Consumer,132.0,54.11999893,0.119999997,Bhatpara,Bengala Occidental
1,4,1/20/2016 9:37,Standard Class,Pacific Asia,Southeast Asia,40.09100723,-82.37677765,Women's Apparel,Golf,3,0,Consumer,132.0,9.239999771,0.119999997,Bangkok,Bangkok
1,4,2/11/2016 17:39,Standard Class,Pacific Asia,Southeast Asia,32.96593094,-96.84902191,Women's Apparel,Golf,3,0,Consumer,132.0,11.61999989,0.119999997,Manila,Capital Nacional
0,4,1/14/2017 11:55,Standard Class,Pacific Asia,West Asia,34.1510849,-116.2429581,Women's Apparel,Golf,3,0,Consumer,132.0,42.90000153,0.119999997,Estambul,Estambul
0,4,9/27/2016 18:12,Standard Class,Pacific Asia,West Asia,26.19762421,-98.19145203,Women's Apparel,Golf,3,0,Consumer,132.0,-14.92000008,0.119999997,Turgutlu,Manisa
0,4,12/16/2015 20:42,Standard Class,Pacific Asia,Eastern Asia,33.35738754,-111.9551849,Shop By Sport,Golf,3,0,Consumer,104.3700027,-33.09000015,0.129999995,Changsha,Hunan
1,4,1/3/2016 20:19,Standard Class,Pacific Asia,Eastern Asia,44.95698166,-93.06536865,Women's Apparel,Golf,3,0,Consumer,130.5,37.84999847,0.129999995,Weifang,Shandong
0,4,1/20/2016 3:19,Standard Class,Pacific Asia,Oceania,34.0816536,-118.1783524,Women's Apparel,Golf,3,0,Consumer,130.5,28.96999931,0.129999995,Sydney,Nueva Gales del Sur
0,4,12/12/2015 16:09,Standard Class,Pacific Asia,South Asia,30.49506187,-84.24580383,Shop By Sport,Golf,3,0,Consumer,104.3700027,17.73999977,0.129999995,Vijayawada,Andhra Pradesh
1,4,2/7/2016 3:38,Standard Class,Pacific Asia,South Asia,32.753685,-96.86553955,Shop By Sport,Golf,3,0,Consumer,104.3700027,6.579999924,0.129999995,Vadodara,Guyarat
1,4,10/13/2016 14:40,Standard Class,Pacific Asia,South Asia,34.64638138,-120.4619675,Women's Apparel,Golf,3,0,Consumer,130.5,35.24000168,0.129999995,Malayer,Hamadán
0,4,1/14/2017 11:55,Standard Class,Pacific Asia,West Asia,34.1510849,-116.2429581,Women's Apparel,Golf,3,0,Consumer,130.5,62.63999939,0.129999995,Estambul,Estambul
1,4,3/6/2016 20:04,Standard Class,Pacific Asia,Eastern Asia,37.87754822,-121.3725586,Women's Apparel,Golf,3,0,Consumer,127.5,61.20000076,0.150000006,Zhangjiakou,Hebei
0,4,2/19/2016 14:29,Standard Class,Pacific Asia,Oceania,21.41555023,-157.803894,Women's Apparel,Golf,3,0,Consumer,127.5,-204.0,0.150000006,Sydney,Nueva Gales del Sur
0,4,3/3/2016 17:47,Standard Class,Pacific Asia,Oceania,35.7243309,-79.72133637,Women's Apparel,Golf,3,0,Consumer,127.5,-102.0,0.150000006,Newcastle,Nueva Gales del Sur
1,4,3/26/2016 14:26,Standard Class,Pacific Asia,Oceania,40.21145248,-77.0072937,Women's Apparel,Golf,3,0,Consumer,127.5,44.63000107,0.150000006,Porirua,Wellington
1,4,9/22/2016 0:10,Standard Class,Pacific Asia,West Asia,44.72552109,-93.20613098,Shop By Sport,Golf,3,0,Consumer,101.9700012,49.97000122,0.150000006,Menemen,Izmir
1,4,11/9/2016 20:04,Standard Class,Pacific Asia,West Asia,33.88021851,-118.1467438,Women's Apparel,Golf,3,0,Consumer,127.5,61.20000076,0.150000006,Estambul,Estambul
0,4,9/10/2016 11:02,Standard Class,Pacific Asia,West Asia,29.98847008,-90.13147736,Women's Apparel,Golf,3,0,Consumer,127.5,62.47999954,0.150000006,Estambul,Estambul
0,4,2/5/2016 19:24,Standard Class,Pacific Asia,Eastern Asia,38.12610626,-85.7959137,Shop By Sport,Golf,3,0,Consumer,100.7699966,-18.95000076,0.159999996,Neijiang,Sichuan
1,4,3/6/2016 20:04,Standard Class,Pacific Asia,Eastern Asia,37.87754822,-121.3725586,Women's Apparel,Golf,3,0,Consumer,126.0,34.02000046,0.159999996,Zhangjiakou,Hebei
1,4,2/7/2016 7:08,Standard Class,Pacific Asia,Eastern Asia,41.97670364,-88.26086426,Women's Apparel,Golf,3,0,Consumer,126.0,42.59000015,0.159999996,Guangzhou,Guangdong
0,4,3/19/2016 10:24,Standard Class,Pacific Asia,Oceania,44.95698166,-93.06536865,Women's Apparel,Golf,3,0,Consumer,126.0,7.940000057,0.159999996,Traralgon,Victoria
1,4,11/5/2016 2:33,Standard Class,Pacific Asia,South Asia,30.47019768,-84.28425598,Shop By Sport,Golf,3,0,Consumer,100.7699966,35.27000046,0.159999996,Fasa,Fars
0,4,12/16/2015 11:56,Standard Class,Pacific Asia,South Asia,25.75343895,-80.20191956,Shop By Sport,Golf,3,0,Consumer,100.7699966,48.36999893,0.159999996,Lahore,Punyab
0,4,1/3/2016 17:10,Standard Class,Pacific Asia,Southeast Asia,39.27961731,-76.71038055,Women's Apparel,Golf,3,0,Consumer,126.0,45.74000168,0.159999996,Ho Chi Minh City,Ciudad Ho Chi Minh
0,4,9/10/2016 11:02,Standard Class,Pacific Asia,West Asia,29.98847008,-90.13147736,Women's Apparel,Golf,3,0,Consumer,126.0,61.74000168,0.159999996,Estambul,Estambul
1,4,1/19/2016 9:26,Standard Class,Pacific Asia,Southeast Asia,42.38130951,-83.13815308,Women's Apparel,Golf,3,0,Consumer,124.5,43.58000183,0.170000002,Manila,Capital Nacional
1,4,1/24/2016 1:12,Standard Class,Pacific Asia,Southeast Asia,40.31143951,-75.13288879,Women's Apparel,Golf,3,0,Consumer,124.5,14.0699997,0.170000002,Ho Chi Minh City,Ciudad Ho Chi Minh
0,4,12/16/2015 1:05,Standard Class,Pacific Asia,South Asia,33.2044487,-117.2939682,Shop By Sport,Golf,3,0,Consumer,98.37999725,46.24000168,0.180000007,Daca,Daca
1,4,10/25/2015 9:34,Standard Class,Pacific Asia,Southeast Asia,30.47019768,-84.28425598,Women's Apparel,Golf,3,0,Consumer,123.0,59.04000092,0.180000007,Bangkok,Bangkok
1,4,3/15/2016 10:46,Standard Class,Pacific Asia,Southeast Asia,36.80849838,-76.20897675,Women's Apparel,Golf,3,0,Consumer,123.0,35.41999817,0.180000007,Marikina,Capital Nacional
0,4,11/8/2016 23:45,Standard Class,Pacific Asia,West Asia,42.73004913,-73.68952942,Women's Apparel,Golf,3,0,Consumer,123.0,33.20999908,0.180000007,Arbil,Arbil
0,4,9/7/2016 0:42,Standard Class,Pacific Asia,Central Asia,40.66998673,-73.94486237,Women's Apparel,Golf,3,0,Consumer,120.0,43.56000137,0.200000003,Temirtau,Karagandá
1,4,11/1/2015 8:20,Standard Class,Pacific Asia,Oceania,41.50510025,-74.06833649,Shop By Sport,Golf,3,0,Consumer,95.98000336,30.04000092,0.200000003,Melbourne,Victoria
0,4,12/4/2015 21:04,Standard Class,Pacific Asia,Oceania,40.66480255,-74.11959076,Women's Apparel,Golf,3,0,Consumer,120.0,7.199999809,0.200000003,Perth,Australia Occidental
0,4,1/24/2016 9:37,Standard Class,Pacific Asia,South Asia,40.65559006,-73.9330368,Shop By Sport,Golf,3,0,Consumer,95.98000336,33.59000015,0.200000003,Meerut,Uttar Pradesh
1,4,12/25/2015 19:07,Standard Class,Pacific Asia,South Asia,25.98771095,-80.25540161,Women's Apparel,Golf,3,0,Consumer,120.0,43.56000137,0.200000003,Pune,Maharashtra
0,4,11/22/2016 5:09,Standard Class,Pacific Asia,West Asia,29.45598984,-98.52809143,Women's Apparel,Golf,3,0,Consumer,120.0,42.0,0.200000003,Etimesgut,Ankara
0,4,2/6/2016 15:43,Standard Class,Pacific Asia,Eastern Asia,41.95851135,-70.66861725,Women's Apparel,Golf,3,0,Consumer,112.5,30.37999916,0.25,Zhuhai,Guangdong
0,4,3/22/2016 13:44,Standard Class,Pacific Asia,Oceania,29.88279152,-97.89540863,Women's Apparel,Golf,3,0,Consumer,112.5,9.899999619,0.25,Whangarei,Northland
0,4,1/3/2016 3:30,Standard Class,Pacific Asia,Southeast Asia,21.30899429,-157.8491516,Women's Apparel,Golf,3,0,Consumer,112.5,54.0,0.25,Taiping,Perak
1,4,1/4/2017 18:14,Standard Class,Pacific Asia,West Asia,40.05984879,-75.08175659,Women's Apparel,Golf,3,0,Consumer,112.5,35.20999908,0.25,Riyadh,Riad
0,4,1/26/2016 7:09,Standard Class,Pacific Asia,Eastern Asia,35.94585037,-84.09391022,Electronics,Outdoors,3,0,Consumer,95.97000122,32.63000107,0.0,Yicheng,Hubei
0,4,1/14/2016 11:01,Standard Class,Pacific Asia,South Asia,34.02759934,-118.2654419,Golf Balls,Outdoors,3,0,Consumer,53.43000031,4.010000229,0.01,Ambattur,Tamil Nadu
1,4,2/16/2016 9:45,Standard Class,Pacific Asia,Southeast Asia,37.55835342,-121.9795074,Accessories,Outdoors,3,0,Consumer,74.22000122,-126.1699982,0.01,Singapur,Singapur
1,4,1/25/2016 14:20,Standard Class,Pacific Asia,Eastern Asia,25.8523407,-80.29110718,Golf Balls,Outdoors,3,0,Consumer,58.77000046,0.0,0.02,Wendeng,Shandong
1,4,2/13/2016 11:41,Standard Class,Pacific Asia,Oceania,42.71463394,-71.16407776,Accessories,Outdoors,3,0,Consumer,72.72000122,35.63000107,0.029999999,Adelaide,Australia del Sur
1,4,3/21/2016 15:40,Standard Class,Pacific Asia,Oceania,33.0895195,-117.2552032,Electronics,Outdoors,3,0,Consumer,93.08999634,34.90999985,0.029999999,New Plymouth,Taranaki
0,4,2/15/2016 1:31,Standard Class,Pacific Asia,South Asia,34.69719696,-118.0742645,Electronics,Outdoors,3,0,Consumer,138.2100067,35.93000031,0.039999999,Daca,Daca
0,4,12/16/2015 11:56,Standard Class,Pacific Asia,South Asia,25.75343895,-80.20191956,Trade-In,Outdoors,3,0,Consumer,63.33000183,17.72999954,0.039999999,Lahore,Punyab
0,4,1/12/2017 19:58,Standard Class,Pacific Asia,West Asia,39.65523911,-104.8748703,Trade-In,Outdoors,3,0,Consumer,46.04999924,4.610000134,0.039999999,Estambul,Estambul
1,4,3/7/2016 10:04,Standard Class,Pacific Asia,Oceania,26.21472931,-80.23004913,Electronics,Outdoors,3,0,Consumer,91.16999817,40.11999893,0.050000001,Bundaberg,Queensland
0,4,3/14/2016 9:11,Standard Class,Pacific Asia,Southeast Asia,33.67670822,-117.9219055,Accessories,Outdoors,3,0,Consumer,71.22000122,34.18999863,0.050000001,Ho Chi Minh City,Ciudad Ho Chi Minh
0,4,10/13/2016 22:44,Standard Class,Pacific Asia,West Asia,33.63964081,-84.45851135,Electronics,Outdoors,3,0,Consumer,148.1699982,3.700000048,0.050000001,Ankara,Ankara
1,4,2/4/2016 13:58,Standard Class,Pacific Asia,Oceania,41.42009354,-87.36070252,Accessories,Outdoors,3,0,Consumer,69.72000122,29.28000069,0.07,Brisbane,Queensland
0,4,8/29/2016 21:55,Standard Class,Pacific Asia,West Asia,39.63772202,-78.82624817,Electronics,Outdoors,3,0,Consumer,86.37000275,6.480000019,0.100000001,Bagdad,Bagdad
0,4,9/7/2016 0:42,Standard Class,Pacific Asia,Central Asia,40.66998673,-73.94486237,Accessories,Outdoors,3,0,Consumer,65.97000122,10.75,0.119999997,Temirtau,Karagandá
1,4,12/28/2015 15:26,Standard Class,Pacific Asia,Southeast Asia,34.26103973,-118.5636902,Accessories,Outdoors,3,0,Consumer,65.97000122,12.52999973,0.119999997,Pekanbaru,Riau
1,4,12/13/2016 4:57,Standard Class,Pacific Asia,West Asia,32.77584457,-117.0497437,Electronics,Outdoors,3,0,Consumer,84.44999695,39.68999863,0.119999997,Sivas,Sivas
1,4,11/3/2016 20:25,Standard Class,Pacific Asia,West Asia,42.17570114,-88.37097931,Accessories,Outdoors,3,0,Consumer,65.22000122,-101.0999985,0.129999995,Jeddah,Meca
1,4,9/1/2016 21:02,Standard Class,Pacific Asia,Central Asia,33.89164734,-118.299408,Accessories,Outdoors,3,0,Consumer,62.97000122,5.539999962,0.159999996,Namangán,Namangán
0,4,12/16/2015 20:42,Standard Class,Pacific Asia,Eastern Asia,33.35738754,-111.9551849,Electronics,Outdoors,3,0,Consumer,79.66000366,14.34000015,0.170000002,Changsha,Hunan
1,4,11/13/2015 21:16,Standard Class,Pacific Asia,Oceania,35.0965271,-90.06786346,Electronics,Outdoors,3,0,Consumer,119.5,-191.1900024,0.170000002,Tamworth,Nueva Gales del Sur
1,4,2/2/2016 16:26,Standard Class,Pacific Asia,Southeast Asia,38.83775711,-77.19849396,Electronics,Outdoors,3,0,Consumer,78.69999695,23.61000061,0.180000007,Rangún,Rangún
1,4,10/13/2016 23:47,Standard Class,Pacific Asia,West Asia,26.03657913,-80.25062561,Golf Balls,Outdoors,3,0,Consumer,47.97999954,23.03000069,0.200000003,Ankara,Ankara
0,4,10/16/2016 8:32,Standard Class,Pacific Asia,South Asia,41.77416611,-87.66143799,Cardio Equipment,Footwear,3,0,Consumer,293.9700012,95.54000092,0.02,Kerman,Kerman
1,4,9/25/2016 3:50,Standard Class,Pacific Asia,Central Asia,33.97483063,-118.1829376,Cardio Equipment,Footwear,3,0,Consumer,290.9700012,-157.1199951,0.029999999,Namangán,Namangán
0,4,9/16/2016 8:56,Standard Class,Pacific Asia,Central Asia,34.06108093,-118.2774735,Electronics,Footwear,3,0,Consumer,93.08999634,26.0699997,0.029999999,Kulob,Khatlon
0,4,12/9/2015 5:49,Standard Class,Pacific Asia,South Asia,37.34420395,-121.9884415,Cardio Equipment,Footwear,3,0,Consumer,290.9700012,122.2099991,0.029999999,Rajshahi,Rajshahi
0,4,2/6/2016 19:35,Standard Class,Pacific Asia,Oceania,28.69241142,-81.18167877,Electronics,Footwear,3,0,Consumer,128.2200012,38.47000122,0.050000001,Wollongong,Nueva Gales del Sur
1,4,10/21/2016 20:58,Standard Class,Pacific Asia,West Asia,38.77690125,-104.8097305,Electronics,Footwear,3,0,Consumer,86.37000275,24.87999916,0.100000001,Estambul,Estambul
1,4,11/25/2015 3:02,Standard Class,Pacific Asia,Southeast Asia,33.45198822,-112.1262131,Cardio Equipment,Footwear,3,0,Consumer,251.9700012,10.07999992,0.159999996,Medan,Sumatra Septentrional
0,4,9/3/2016 4:55,Standard Class,Pacific Asia,South Asia,36.97051239,-122.0238266,Cardio Equipment,Footwear,3,0,Consumer,239.9799957,117.5899963,0.200000003,Kermanshah,Kermanshah
1,4,2/23/2016 12:01,Standard Class,Pacific Asia,Eastern Asia,40.60063934,-73.76037598,Cleats,Apparel,3,0,Consumer,179.9700012,20.34000015,0.0,Anshan,Liaoning
0,4,12/14/2015 16:09,Standard Class,Pacific Asia,Oceania,30.47071457,-97.64977264,Cleats,Apparel,3,0,Consumer,172.7700043,47.50999832,0.039999999,Perth,Australia Occidental
1,4,2/26/2016 8:20,Standard Class,Pacific Asia,Eastern Asia,39.29141998,-76.51338959,Cleats,Apparel,3,0,Consumer,170.0700073,-42.52000046,0.059999999,Huaiyin,Jiangsu
0,4,3/26/2016 14:05,Standard Class,Pacific Asia,Oceania,30.62633896,-96.34606934,Cleats,Apparel,3,0,Consumer,167.3699951,45.18999863,0.07,Porirua,Wellington
0,4,1/17/2017 13:50,Standard Class,Pacific Asia,West Asia,36.97051239,-122.0238266,Cleats,Apparel,3,0,Consumer,167.3699951,29.29000092,0.07,Mezitli,Mersin
0,4,12/10/2015 4:57,Standard Class,Pacific Asia,Southeast Asia,34.12594605,-118.2910156,Cleats,Apparel,3,0,Consumer,163.7700043,57.3199997,0.090000004,Manila,Capital Nacional
1,4,3/1/2016 22:42,Standard Class,Pacific Asia,Oceania,42.45111084,-73.25260162,Cleats,Apparel,3,0,Consumer,161.9700012,-129.5800018,0.100000001,Canberra,Territorio de la Capital Australiana
1,4,3/16/2016 13:02,Standard Class,Pacific Asia,Southeast Asia,34.15697479,-117.4821548,Cleats,Apparel,3,0,Consumer,158.3699951,76.01999664,0.119999997,Manila,Capital Nacional
0,4,11/14/2015 6:44,Standard Class,Pacific Asia,Eastern Asia,33.99459839,-117.9534302,Cleats,Apparel,3,0,Consumer,156.5700073,-152.6600037,0.129999995,Hangzhou,Zhejiang
1,4,3/16/2016 13:02,Standard Class,Pacific Asia,Southeast Asia,34.15697479,-117.4821548,Cleats,Apparel,3,0,Consumer,156.5700073,75.16000366,0.129999995,Manila,Capital Nacional
0,4,1/6/2016 21:12,Standard Class,Pacific Asia,Southeast Asia,31.76512718,-106.4954147,Cleats,Apparel,3,0,Consumer,156.5700073,76.72000122,0.129999995,Singapur,Singapur
1,4,2/17/2016 17:17,Standard Class,Pacific Asia,Southeast Asia,33.29928207,-111.8414688,Cleats,Apparel,3,0,Consumer,152.9700012,-1.99000001,0.150000006,Bangkok,Bangkok
1,4,2/11/2016 16:14,Standard Class,Pacific Asia,South Asia,40.03775024,-75.06806183,Cleats,Apparel,3,0,Consumer,151.1699982,37.79000092,0.159999996,Durg,Chhattisgarh
0,4,3/21/2016 16:43,Standard Class,Pacific Asia,Oceania,33.29928207,-111.8414688,Cleats,Apparel,3,0,Consumer,147.5800018,17.27000046,0.180000007,New Plymouth,Taranaki
0,4,12/9/2015 5:49,Standard Class,Pacific Asia,South Asia,37.34420395,-121.9884415,Cleats,Apparel,3,0,Consumer,143.9799957,-23.46999931,0.200000003,Rajshahi,Rajshahi
0,4,1/24/2016 9:16,Standard Class,Pacific Asia,Eastern Asia,34.09378433,-118.2705994,Cleats,Apparel,3,0,Consumer,134.9799957,2.970000029,0.25,Wuxi,Hunan
1,4,3/20/2016 1:07,Standard Class,Pacific Asia,Oceania,40.03102875,-83.13726807,Shop By Sport,Golf,3,0,Consumer,119.9700012,33.59000015,0.0,Porirua,Wellington
1,4,10/23/2016 8:00,Standard Class,Pacific Asia,South Asia,30.57155609,-92.15605164,Women's Apparel,Golf,3,0,Consumer,150.0,-405.0,0.0,Borujerd,Lorestan
1,4,2/17/2016 17:17,Standard Class,Pacific Asia,Southeast Asia,33.29928207,-111.8414688,Shop By Sport,Golf,3,0,Consumer,119.9700012,37.54999924,0.0,Bangkok,Bangkok
1,4,9/29/2016 12:35,Standard Class,Pacific Asia,West Asia,37.36024094,-121.8450699,Women's Apparel,Golf,3,0,Consumer,145.5,69.83999634,0.029999999,Jerusalén,Jerusalén
1,4,11/12/2015 3:14,Standard Class,Pacific Asia,Eastern Asia,36.0810051,-86.6870575,Women's Apparel,Golf,3,0,Consumer,144.0,-28.79999924,0.039999999,Yancheng,Jiangsu
1,4,1/1/2016 15:25,Standard Class,Pacific Asia,Eastern Asia,32.79872894,-116.9538727,Women's Apparel,Golf,3,0,Consumer,142.5,65.55000305,0.050000001,Yichun,Jiangxi
1,4,1/9/2016 19:58,Standard Class,Pacific Asia,Southeast Asia,33.9031601,-117.9898758,Shop By Sport,Golf,3,0,Consumer,111.5699997,55.79000092,0.07,Cainta,Calabarzón
0,4,11/18/2015 19:20,Standard Class,Pacific Asia,Southeast Asia,38.82551575,-77.21334839,Women's Apparel,Golf,3,0,Consumer,135.0,-1.75999999,0.100000001,Bangkok,Bangkok
0,4,2/14/2016 2:24,Standard Class,Pacific Asia,Eastern Asia,35.20875549,-118.9114761,Women's Apparel,Golf,3,0,Consumer,127.5,-85.04000092,0.150000006,Shijiazhuang,Hebei
1,4,3/19/2016 10:45,Standard Class,Pacific Asia,Oceania,25.66784477,-80.37543488,Women's Apparel,Golf,3,0,Consumer,127.5,61.20000076,0.150000006,Traralgon,Victoria
0,4,10/16/2016 8:32,Standard Class,Pacific Asia,South Asia,41.77416611,-87.66143799,Women's Apparel,Golf,3,0,Consumer,123.0,41.5699997,0.180000007,Kerman,Kerman
1,4,2/22/2016 18:09,Standard Class,Pacific Asia,Oceania,40.20003891,-77.24391937,Women's Apparel,Golf,3,0,Consumer,120.0,2.880000114,0.200000003,Sydney,Nueva Gales del Sur
0,4,2/4/2016 11:10,Standard Class,Pacific Asia,South Asia,32.75856018,-117.0881882,Shop By Sport,Golf,3,0,Consumer,95.98000336,30.04000092,0.200000003,Akola,Maharashtra
1,4,3/4/2016 4:39,Standard Class,Pacific Asia,Southeast Asia,26.21952248,-98.36013794,Golf Balls,Outdoors,3,0,Consumer,45.86999893,21.55999947,0.150000006,Yakarta,Yakarta
0,4,10/8/2016 6:27,Standard Class,USCA,Canada,29.7805748,-95.17199707,Baseball & Softball,Fitness,3,0,Consumer,104.9700012,30.44000053,0.0,Regina,Saskatchewan
0,4,4/9/2016 0:03,Standard Class,USCA,US Center,40.58441544,-74.15991974,Lacrosse,Fitness,3,0,Consumer,67.47000122,5.059999943,0.100000001,Huntsville,Texas
1,4,7/22/2016 23:43,Standard Class,USCA,US Center,36.11117935,-115.2110291,Tennis & Racquet,Fitness,3,0,Consumer,117.4199982,-13.27000046,0.129999995,Midland,Michigan
0,4,5/7/2016 20:19,Standard Class,USCA,South of  USA,40.64759827,-73.95845795,Cardio Equipment,Footwear,3,0,Consumer,299.9700012,143.9900055,0.0,Newport News,Virginia
0,4,7/30/2016 13:12,Standard Class,USCA,US Center,33.94185257,-84.08663178,Cardio Equipment,Footwear,3,0,Consumer,90.0,31.5,0.0,Chicago,Illinois
0,4,5/7/2016 20:19,Standard Class,USCA,South of  USA,40.64759827,-73.95845795,Cardio Equipment,Footwear,3,0,Consumer,296.9700012,142.5500031,0.01,Newport News,Virginia
1,4,8/9/2016 6:53,Standard Class,USCA,US Center,32.79290009,-96.74819946,Cardio Equipment,Footwear,3,0,Consumer,296.9700012,37.11999893,0.01,Chicago,Illinois
0,4,6/22/2016 2:03,Standard Class,USCA,US Center,38.79660034,-90.34640503,Cardio Equipment,Footwear,3,0,Consumer,290.9700012,105.6200027,0.029999999,Chicago,Illinois
0,4,8/24/2016 14:23,Standard Class,USCA,US Center,40.74559021,-73.97927856,Cardio Equipment,Footwear,3,0,Consumer,284.9700012,-85.48999786,0.050000001,Marion,Iowa
0,4,7/21/2016 19:21,Standard Class,USCA,West of USA,29.32623291,-100.7549973,Cardio Equipment,Footwear,3,0,Consumer,278.9700012,-24.54999924,0.07,Springfield,Oregón
1,4,5/25/2016 23:06,Standard Class,USCA,US Center,36.78103638,-76.11266327,Cardio Equipment,Footwear,3,0,Consumer,272.9700012,-61.41999817,0.090000004,Mesquite,Texas
0,4,6/20/2016 4:30,Standard Class,USCA,West of USA,33.92758942,-117.5455627,Cardio Equipment,Footwear,3,0,Consumer,272.9700012,20.46999931,0.090000004,Los Angeles,California
1,4,7/21/2016 2:32,Standard Class,USCA,East of USA,34.04317856,-118.77948,Cardio Equipment,Footwear,3,0,Consumer,269.9700012,121.4899979,0.100000001,New York City,Nueva York
0,4,5/18/2016 20:50,Standard Class,USCA,East of USA,47.69986725,-117.4178543,Cardio Equipment,Footwear,3,0,Consumer,269.9700012,-688.4299927,0.100000001,Lakewood,Nueva Jersey
1,4,8/22/2016 12:18,Standard Class,USCA,South of  USA,42.41878891,-70.98806763,Cardio Equipment,Footwear,3,0,Consumer,269.9700012,-47.25,0.100000001,Atlanta,Georgia
1,4,7/3/2016 15:52,Standard Class,USCA,West of USA,43.61513138,-84.60793304,Cardio Equipment,Footwear,3,0,Consumer,269.9700012,91.79000092,0.100000001,Seattle,Washington
0,4,7/12/2016 23:02,Standard Class,USCA,West of USA,40.64636612,-112.0324631,Cardio Equipment,Footwear,3,0,Consumer,269.9700012,113.3899994,0.100000001,Las Vegas,Nevada
1,4,8/5/2016 13:54,Standard Class,USCA,West of USA,37.55712128,-121.9916382,Cardio Equipment,Footwear,3,0,Consumer,260.9700012,29.48999977,0.129999995,Oakland,California
1,4,12/17/2016 8:27,Standard Class,USCA,Canada,41.95449448,-87.65029144,Fitness Accessories,Footwear,3,0,Consumer,88.16999817,39.68000031,0.159999996,Ottawa,Ontario
0,4,6/9/2016 12:45,Standard Class,USCA,East of USA,37.38663864,-122.0335236,Cardio Equipment,Footwear,3,0,Consumer,251.9700012,88.19000244,0.159999996,Waterbury,Connecticut
1,4,5/8/2016 22:57,Standard Class,USCA,East of USA,39.3816185,-76.54323578,Cardio Equipment,Footwear,3,0,Consumer,251.9700012,123.4700012,0.159999996,Philadelphia,Pensilvania
0,4,8/4/2016 7:04,Standard Class,USCA,East of USA,28.51626968,-81.30583191,Cardio Equipment,Footwear,3,0,Consumer,248.9799957,80.91999817,0.170000002,Columbus,Ohio
0,4,7/28/2016 10:45,Standard Class,USCA,West of USA,41.8728714,-87.71582031,Cardio Equipment,Footwear,3,0,Consumer,248.9799957,0.0,0.170000002,Los Angeles,California
0,4,6/25/2016 19:44,Standard Class,USCA,West of USA,36.06906128,-115.0822067,Cardio Equipment,Footwear,3,0,Consumer,248.9799957,72.19999695,0.170000002,San Francisco,California
0,4,6/7/2016 20:06,Standard Class,USCA,West of USA,36.08757019,-79.88663483,Boxing & MMA,Footwear,3,0,Consumer,131.9299927,13.18999958,0.200000003,Danville,California
1,4,7/1/2016 7:49,Standard Class,USCA,US Center,33.97763825,-118.2206879,Cardio Equipment,Footwear,3,0,Consumer,224.9799957,37.5699997,0.25,Columbus,Indiana
1,4,6/6/2016 22:23,Standard Class,USCA,East of USA,35.0965271,-90.06786346,Cleats,Apparel,3,0,Consumer,179.9700012,1.799999952,0.0,Rome,Nueva York
0,4,4/20/2016 9:19,Standard Class,USCA,US Center,29.52998352,-98.60829163,Cleats,Apparel,3,0,Consumer,179.9700012,-287.9500122,0.0,Chicago,Illinois
0,4,8/15/2016 20:11,Standard Class,USCA,East of USA,32.75128555,-117.0022278,Cleats,Apparel,3,0,Consumer,176.3699951,59.61000061,0.02,Philadelphia,Pensilvania
0,4,4/29/2016 7:01,Standard Class,USCA,East of USA,29.80868912,-95.26977539,Cleats,Apparel,3,0,Consumer,176.3699951,75.83999634,0.02,New York City,Nueva York
1,4,8/13/2016 2:19,Standard Class,USCA,West of USA,36.33087921,-119.6439438,Cleats,Apparel,3,0,Consumer,176.3699951,45.86000061,0.02,Redmond,Oregón
0,4,4/13/2016 16:09,Standard Class,USCA,West of USA,32.75936127,-117.0171356,Cleats,Apparel,3,0,Consumer,176.3699951,59.61000061,0.02,Edmonds,Washington
0,4,5/8/2016 20:51,Standard Class,USCA,East of USA,34.0700798,-117.9371948,Cleats,Apparel,3,0,Consumer,174.5700073,59.0,0.029999999,Cleveland,Ohio
